fire_name,county,cost,burnt_acres,startDate,finishDate,latitude,longitude,injuries,destroyedStructures,threatenedStructures,airtankers,dozers,fireEngines,firePersonnel,fireCrews,helicopters,waterTenders,meanTemp,maxTemp,minTemp,dewPoint,avgHumidity,maxHumidity,minHumidity,fire,maxWind
Sierra Fire Incident Information: ,Orange,6.9,10584,2/6/06 04:30,2/12/06 18:00,33.76733777,-117.6885213,8,0,0,,,2,5,,,,,63,37,,,,,1,0
School Fire Incident Information: ,Ventura,3.4,3891,11/18/05 03:33,11/22/05 18:00,34.274646,-119.2290316,2,2,,,,,32,3,,,66,72,61,30,26,32,20,1,23
Rumsey Fire Incident Information: ,Yolo,10.3,39138,6/2/05 15:27,6/6/05 12:16,38.8959215,-122.2473278,4,4,,,,,30,,,,,82,52,,,,,1,0
Freds Fire Incident Information: ,El Dorado,,,10/13/04 16:15,11/9/04 11:00,36.778261,-119.4179324,,,,,,,,,,,73,90,59,41,35,54,16,1,13
Bear Fire Incident Information: ,Mariposa,1.4,416,9/2/04 12:57,9/4/04 18:00,37.4849377,-119.9662843,2,5,,,,26,367,14,,,75,93,61,48,43,72,19,1,27
Geysers Fire Incident Information: ,Lake,805,12525,9/3/04 05:24,9/10/04 07:00,39.31792909,-122.9777715,19,33,,,6,84,1505,56,2,16,70,90,50,41,43,83,14,1,26
Old Hwy Fire Incident Information: ,Mariposa,1.2,1413,9/13/04 15:51,9/15/04 07:00,37.4849377,-119.9662843,3,0,,,3,50,590,18,2,5,72,88,57,48,47,72,27,1,23
Power Fire Incident Information: ,El Dorado,,,10/6/04 14:11,11/10/04 16:00,37.07836767,-121.031484,,,,,,,,,,,,73,50,,,,,1,0
Pattison Fire Incident Information: ,Calaveras,2.9,2676,9/3/04 13:39,9/5/04 19:00,38.2089563,-120.9060026,2,58,,3,16,59,695,22,4,10,73,86,63,37,27,45,18,1,39
Bear Fire Incident Information: ,Shasta,8.8,10484,8/11/04 15:29,8/16/04 19:00,40.7361195,-122.2270387,10,110,400,,5,42,839,33,1,7,,95,61,,,,,1,0
French Fire Incident Information: ,Shasta,14.4,13005,8/14/04 14:21,8/21/04 19:00,38.59357361,-121.1564143,20,103,,,16,72,1345,34,5,35,75,88,64,46,35,52,23,1,14
Oregon Fire Incident Information: ,Butte,0.474,2030,8/11/04 13:55,8/13/04 06:00,37.7294704,-117.6240136,3,17,,,11,110,564,9,7,14,79,97,61,32,17,21,15,1,19
Topanga Fire Incident Information: ,Los Angeles,15.8,24175,9/28/05 13:50,10/6/05 06:00,33.84151604,-118.1516263,31,16,,,4,81,810,14,4,4,,82,52,,,,,1,0
Border 50 Incident Information: ,San Diego,2.6,4100,10/5/05 09:17,10/8/05 19:00,32.6047822,-116.6130731,3,,,,2,17,605,32,,76,66,79,54,16,15,20,9,1,48
Hunt Fire Incident Information: ,Calaveras,,600,8/10/04 17:11,8/13/04 07:00,38.053743,-120.750229,,0,,,,,75,,,,81,99,63,55,47,75,21,1,19
Thurman Fire Incident Information: ,San Bernardino,,935,9/29/05 13:23,10/7/05 18:00,35.58413638,-116.9183181,,,,,,,,,,,,90,63,,,,,1,0
Arrastre Fire Incident Information: ,San Bernardino,,361,6/9/06 12:51,6/9/06 15:33,34.2611183,-116.84503,,,,,,,,,,,,77,52,,,,,1,0
Plunge Fire Incident Information: ,San Bernardino,,485,1/23/06 12:32,6/19/06 15:38,34.2077859,-117.1092049,,,,,,,,,,,,63,37,,,,,1,0
Stevens Fire Incident Information: ,Placer,3.2,934,8/8/04 13:36,8/11/04 19:00,39.1007298,-120.9532759,9,2,,,4,41,858,33,3,9,82,95,68,45,27,38,17,1,16
Paradise Fire Incident Information: ,San Diego,11.3,56700,10/26/03 01:30,11/6/03 07:00,33.2183701,-117.0341967,30,505,,,16,80,788,56,21,10,75,90,61,34,29,88,8,1,16
Calaveras Complex Incident Information: ,Calaveras,5.5,4411,8/7/04 07:00,8/10/04 18:00,38.13526,-120.4557177,14,11,,,1,43,458,10,,,,95,61,,,,,1,0
Cedar Fire Incident Information: ,San Diego,27,273246,10/25/03 17:37,11/5/03 06:00,32.7157305,-117.1610966,118,3031,,,,,1478,,,,63,72,55,59,94,100,68,1,11
Perkins Fire Incident Information: ,Santa Barbara,,15043,6/19/06 15:18,6/25/06 19:00,34.104581,-117.939645,,,,,,,,,,,,82,52,,,,,1,0
Straylor Fire Incident Information: ,Lassen,10.4,3422,7/22/04 16:03,7/30/04 06:00,41.005339,-121.43875,10,0,,,8,51,1145,40,3,26,,,,,,,,1,0
Simi Fire Incident Information: ,Ventura,10,108204,10/25/03 14:15,11/5/03 10:00,34.285859,-118.881421,21,326,,,26,111,131,51,10,7,79,86,70,27,16,23,12,1,11
Volcan Fire Incident Information: ,San Diego,4.4,685,9/6/05 11:28,9/13/05 07:00,33.1129685,-116.5824219,6,41,,,1,16,411,14,3,7,72,91,48,25,26,47,5,1,26
Mataguay Fire Incident Information: ,San Diego,1.8,8867,7/13/04 12:30,7/16/04 06:00,33.2769753,-116.6494394,7,4,,,3,10,168,9,1,5,70,75,64,63,83,94,62,1,16
Manton Fire Incident Information: ,Tehama,2.9,1830,8/26/05 15:00,8/29/05 07:00,40.4358746,-121.8622164,3,31,,,1,79,1272,39,3,15,79,99,57,39,33,62,6,1,21
Yorba Linda Fire Incident Information: ,Orange,2.8,1078,7/5/05 14:06,7/9/05 06:00,33.8885035,-117.8132571,9,,,,,15,533,20,,4,,88,55,,,,,1,0
Mountain Fire Incident Information: ,Riverside,1.8,10331,10/26/03 11:45,10/30/03 06:00,33.6607732,-117.8411332,7,64,,,,,339,,,,,73,46,,,,,1,0
Paradise Fire Incident Information: ,San Bernardino,,3022,6/22/05 12:53,6/24/05 07:00,34.046867,-116.580728,1,7,,1,5,50,1030,37,5,7,,84,54,,,,,1,0
Otay Fire Incident Information: ,San Diego,,46291,10/26/03 13:00,10/27/03 19:00,34.20616562,-121.3080002,1,6,,,,4,138,9,2,,,,,,,,,1,0
Blaisdell Fire Incident Information: ,San Bernardino,,,8/26/05 21:40,9/29/05 17:47,33.8302961,-116.5452921,,,,,,,,,,,,91,61,,,,,1,0
Honeydew and Canoe Fires Incident Information: ,Humboldt,28.7,11861,9/3/03 14:00,10/6/03 18:00,40.0983553,-123.7948432,64,2,,,11,61,1146,28,4,12,,63,52,,,,,1,0
Soboba Fire Incident Information: ,Riverside,1.7,2080,6/22/05 12:00,6/25/05 08:00,33.7907997,-116.9271306,2,,,,5,40,778,36,3,10,,82,52,,,,,1,0
Sims Fire Incident Information: ,Trinity,,,7/28/04 12:00,8/5/04 12:41,39.8669604,-123.2209934,,,,,,,,,,,,,,,,,,1,0
36 Fire Incident Information: ,Tehama,0.842,2876,8/10/05 17:25,8/12/05 06:00,40.3595937,-122.894741,1,,,,11,51,965,37,1,8,,95,61,,,,,1,0
Quartz Fire Incident Information: ,Madera,0.718,550,7/25/05 12:06,7/27/05 07:00,37.2621686,-119.7009834,3,2,,,16,85,780,24,2,7,88,104,70,48,35,61,9,1,26
Parkhill Fire Incident Information: ,San Luis Obispo,1.1,1200,7/20/03 14:55,7/23/03 07:00,35.23662713,-119.9400095,4,18,,,1,25,428,17,5,2,68,82,54,55,78,96,49,1,13
Eagle Fire Incident Information: ,Riverside,4.9,8900,5/2/04 15:14,5/7/04 19:00,33.93666239,-116.3771261,8,41,,,10,114,215,48,4,5,,72,46,,,,,1,0
Crown Fire and Foothill Fire Incident Information: ,Los Angeles,,,7/23/04 19:00,7/23/04 19:00,34.34376517,-118.3831201,,,,,,,,,,,64,68,63,55,69,76,62,1,6
Cerritos Fire Incident Information: ,Riverside,2.3,16460,5/3/04 13:31,5/7/04 19:00,33.8752935,-117.5664384,10,24,,,,,475,,,,,73,45,,,,,1,0
Del Puerto Fire Incident Information: ,Stanislaus,2.2,5909,7/20/03 10:08,7/24/03 07:00,38.19388772,-121.020914,10,2,,,4,25,507,20,1,4,,90,57,,,,,1,0
Pine Fire Incident Information: ,Los Angeles,,,7/12/04 12:50,7/22/04 09:00,34.45419092,-117.9448554,,,,,,,,,,,82,99,68,45,27,41,16,1,6
Cachuma Fire Incident Information: ,Santa Barbara,,,5/3/04 12:00,5/8/04 18:00,34.4724267,-120.1192045,,,,,,,,,,,,68,48,,,,,1,0
Canyon Fire Incident Information: ,Riverside,2.9,4300,7/25/03 13:27,7/29/03 07:00,33.7839084,-116.958635,2,6,,,10,5,189,5,1,1,,88,55,,,,,1,0
Santa Clara Complex Incident Information: ,Santa Clara,10.5,30170,8/25/03 22:00,9/3/03 19:00,37.25223448,-121.158674,4,1,,,2,1,246,4,2,11,,72,54,,,,,1,0
Gaviota Fire Incident Information: ,Santa Barbara,6.4,7440,6/5/04 11:57,6/12/04 06:00,34.4162768,-119.6920172,44,4,,,11,46,1370,20,14,4,63,73,54,55,79,96,61,1,19
Coyote Fire Incident Information: ,San Diego,10.3,18705,7/16/03 13:19,7/24/03 19:00,36.50472285,-117.6001968,14,21,,,4,5,743,24,2,15,,,,,,,,1,0
Goodale Fire Incident Information: ,Inyo,,3750,6/26/06 14:34,6/29/06 18:00,37.513555,-118.6349235,,,,,,,,,,,82,100,64,37,20,37,8,1,42
Lassen/Modoc Lightning Fires Incident Information: ,Lassen,,3500,6/25/06 17:00,7/5/06 07:00,36.778261,-119.4179324,,,,,,,,,,,90,106,75,59,36,54,20,1,16
Del Puerto Fire Incident Information: ,Stanislaus,3.5,2593,6/30/06 11:48,7/4/06 06:00,37.4227341,-121.3806971,3,,,,5,35,784,28,,2,,72,50,,,,,1,0
Pedro Fire Incident Information: ,Tuolumne,3,1998,7/3/06 12:39,7/7/06 07:00,37.87549999,-120.5768908,,,,,9,40,1188,46,4,6,,93,57,,,,,1,0
Canyon Fire Incident Information: ,Stanislaus,14.5,34217,7/9/06 15:55,7/19/06 07:00,37.4434397,-121.2954081,10,22,,,9,62,1105,34,3,6,,70,52,,,,,1,0
Arco Fire Incident Information: ,Kern,,698,7/9/06 16:38,7/12/06 07:00,35.04522413,-118.254907,,,,,,,,,,,88,104,72,45,23,41,12,1,34
Sawtooth Complex Incident Information: ,San Bernardino,16.8,61700,7/9/06 08:30,7/19/06 18:30,34.1141743,-116.432235,18,486,,1,2,23,861,24,10,5,,88,57,,,,,1,0
Midway Fire Incident Information: ,Alameda,,6400,7/11/06 15:20,7/12/06 07:00,37.7149019,-121.5588433,0,,,3,3,20,,2,3,,68,81,57,52,64,83,35,1,34
Cary Fire Incident Information: ,Riverside,,81,7/12/06 12:39,7/12/06 19:00,33.76976035,-117.4000445,,,,,,,,,,,,88,55,,,,,1,0
Heart-Millard Complex Incident Information: ,San Bernardino,,24000,7/14/06 07:22,9/10/06 19:00,36.778261,-119.4179324,,,,,,,,,,,86,102,70,52,35,63,11,1,19
Ore Fire Incident Information: ,El Dorado,,40,7/16/06 17:30,7/16/06 19:00,37.94792848,-120.6692344,,,,,,,,,,,,95,61,,,,,1,0
Geysers Fire Incident Information: ,Mendocino,,321,7/17/06 16:40,7/19/06 19:00,39.30717777,-123.6217847,,,,,,,,,,,86,108,64,54,37,73,12,1,16
29 Fire Incident Information: ,Lake,1.4,550,7/17/06 20:55,7/22/06 07:00,38.7524578,-122.6152093,1,5,,,5,11,212,13,2,3,,81,54,,,,,1,0
Creek Fire Incident Information: ,Lassen,3.5,1611,7/18/06 16:26,7/23/06 07:00,40.390398,-120.7166295,,,,0,1,31,444,17,,11,,88,46,,,,,1,0
Hub Fire Incident Information: ,Calaveras,,130,7/19/06 15:00,7/22/06 07:00,37.9810358,-120.6418716,,,,,,,,,,,86,100,72,55,41,76,20,1,26
Covington Fire Incident Information: ,San Bernardino,,280,7/20/06 12:00,7/22/06 07:00,34.0941981,-116.3703948,,,,,,,,,,,,90,59,,,,,1,0
Three Rocks Fire Incident Information: ,Fresno,,6500,7/22/06 20:00,7/24/06 07:00,36.62823715,-119.446951,,,,,,,,,,,99,111,84,63,33,56,15,1,16
Coyote Complex Incident Information: ,Riverside,,460,7/23/06 02:11,7/27/06 07:00,33.4830862,-116.5848223,,,,,,,,,,,,90,59,,,,,1,0
Horse Fire Incident Information: ,San Diego,6.8,16681,7/23/06 06:04,7/30/06 07:00,32.8150695,-116.6358544,23,,,2,6,55,859,13,3,9,88,102,73,55,32,52,18,1,35
Whispering Pines Fire Incident Information: ,San Bernardino,,993,7/23/06 01:15,7/26/06 07:00,34.0680974,-117.9250442,,,,,,,,,,,,88,55,,,,,1,0
Rico Fire Incident Information: ,Monterey,4,14507,7/22/06 18:04,7/28/06 19:00,35.57259714,-119.9687761,13,1,30,,5,15,238,2,0,8,90,115,68,55,32,59,12,1,26
San Rafael Lightning Complex Incident Information: ,Santa Barbara,,2026,7/23/06 13:00,7/30/06 19:00,33.9504364,-120.3284918,,,,,,,,,,,,,,,,,,1,0
Mt. Pinos Lightning Complex Incident Information: ,Kern,,3179,7/23/06 13:30,7/30/06 07:00,34.766763,-119.0661994,,,,,,,,,,,108,129,84,66,42,73,23,1,14
Auberry Complex Incident Information: ,Fresno,0.6,300,7/23/06 19:30,7/27/06 07:00,37.1134599,-119.5036149,2,,,,2,46,475,15,,3,100,113,90,61,28,43,16,1,27
Empire Fire Incident Information: ,Los Angeles,1.2,1094,7/22/06 08:12,7/28/06 07:00,33.4047828,-118.4153865,2,,,,,2,6,,,,90,100,82,55,30,39,24,1,26
Oak Fire Incident Information: ,Riverside,,225,7/23/06 01:00,7/26/06 07:00,33.38238938,-117.3693792,,,,,,,,,,,,88,55,,,,,1,0
SHF Lightning Complex Incident Information: ,Siskiyou,,31,7/23/06 18:01,7/31/06 19:00,41.8862278,-123.0825805,,,,,,,,,,,90,108,75,61,38,60,20,1,21
Uncles Complex Incident Information: ,Siskiyou,,30454,7/23/06 13:00,10/23/06 17:00,40.1876368,-122.8801574,,,,,,,,,,,,97,63,,,,,1,0
Shasta Fire Incident Information: ,Shasta,1.1,225,7/25/06 15:52,7/30/06 07:00,40.6804279,-122.3708419,1,,,,1,4,90,4,,4,,97,63,,,,,1,0
Bar Complex (Pigeon Fire) Incident Information: ,Trinity,,100414,7/26/06 17:05,11/15/06 08:00,40.7309778,-122.9419708,,,,,,,,,,,,97,63,,,,,1,0
Lakin Fire Incident Information: ,Siskiyou,,480,7/25/06 14:00,7/10/06 19:00,39.80417387,-123.5125019,,,,,,,,,,,,59,52,,,,,1,0
Hunter Fire Incident Information: ,Mendocino,,16296,7/24/06 17:45,8/16/06 19:00,39.5580482,-123.7915928,,,,,,,,,,,63,68,55,55,75,94,64,1,10
Sage Fire Incident Information: ,Modoc,,6200,7/26/06 10:30,8/5/06 07:00,41.484114,-120.539992,,,,,,,,,,,77,99,55,39,32,67,9,1,24
Happy Camp Fire Incident Information: ,Siskiyou,,6134,7/23/06 01:01,9/24/06 17:30,39.94187681,-122.0128765,,,,,,,,,,,95,113,79,63,32,64,13,1,21
Kingsley Complex Incident Information: ,Mendocino,,6854,7/25/06 05:30,8/7/06 07:00,39.65406487,-122.9723612,,,,,,,,,,,88,109,66,59,46,78,14,1,16
Junction Fire Incident Information: ,Trinity,5.4,3126,7/29/06 12:20,8/2/06 18:00,40.47808481,-123.450214,6,1,,,3,65,831,27,1,8,,61,52,,,,,1,0
Mountain Fire Incident Information: ,Riverside,,113,8/8/06 10:36,8/9/06 19:00,33.9255713,-116.8764103,,,,,,,,,,,,91,61,,,,,1,0
Golf Fire Incident Information: ,Riverside,,800,8/8/06 14:13,8/10/06 19:00,33.7559326,-116.9583343,,,,,,,,,,,,91,57,,,,,1,0
Orleans Complex Incident Information: ,Humboldt,,15710,7/24/06 11:55,11/8/06 07:00,40.74737392,-123.8894873,,,,,,,,,,,61,66,55,55,91,100,70,1,14
Creek Fire Incident Information: ,Riverside,,200,8/12/06 15:15,8/14/06 07:00,33.77534979,-116.6393935,,,,,,,,,,,,91,61,,,,,1,0
Gilman Fire Incident Information: ,Riverside,,360,8/12/06 17:04,8/14/06 19:00,33.71264954,-116.2386425,,,,,,,,,,,88,102,75,36,13,19,9,1,34
Quail Fire Incident Information: ,Los Angeles,2.2,4864,8/13/06 12:33,8/16/06 07:00,33.91674342,-118.5942657,3,3,0,,8,90,1355,53,2,10,75,91,57,57,63,93,24,1,11
Marysville Fire Incident Information: ,Yuba,,442,8/16/06 13:05,8/19/06 08:00,39.3715576,-121.2060694,,1,,,,10,231,10,,6,73,82,64,43,34,56,19,1,23
Rollins Fire Incident Information: ,Nevada,,37,8/19/06 14:38,8/21/06 08:00,39.1958045,-120.9151729,,,,4,2,19,70,1,4,,79,90,66,45,32,43,20,1,16
Foresthill Fire Incident Information: ,Placer,,45,8/20/06 16:00,8/21/06 16:45,38.9344057,-121.0043342,,,0,,,,,,,,79,90,68,43,30,40,17,1,19
Boundary Fire Incident Information: ,Mariposa,,536,8/21/06 15:00,8/28/06 07:00,37.75016166,-120.7946559,,,,,,,,,,,73,91,57,54,49,78,30,1,23
Middle T Fire Incident Information: ,Tuolumne,,451,7/20/06 16:01,8/28/06 07:00,38.19842203,-120.4547555,,,,,,,,,,,,93,61,,,,,1,0
Cross Fire Incident Information: ,Los Angeles,,665,8/28/06 10:39,8/29/06 19:00,33.91823664,-117.8366572,,,,,,,,,,,,90,57,,,,,1,0
Plymouth Fire / Big Fire Incident Information: ,Amador,,42,8/28/06 12:00,8/29/06 19:00,38.61105773,-120.6000521,,,,,,,,,,,81,93,70,48,34,53,20,1,16
Emerald Fire Incident Information: ,San Bernardino,,2129,8/29/06 15:05,9/1/06 07:00,35.29427932,-117.5977473,,,,,,,,,,,82,102,63,32,19,34,4,1,34
Deer Fire Incident Information: ,El Dorado,,75,8/31/06 17:00,9/1/06 07:00,38.695667,-121.003642,,,,,,,,,,,79,91,66,43,30,43,21,1,14
51 Fire Incident Information: ,El Dorado,,46,9/2/06 22:00,9/3/06 19:00,38.84314674,-119.8248753,,,,,,,,,,,,73,41,,,,,1,0
Day Fire Incident Information: ,Ventura,,162702,9/4/06 13:55,10/2/06 18:30,34.4302634,-118.769354,,,,,,,,,,,90,106,72,54,33,44,23,1,14
Sawmill Fire Incident Information: ,Mono,,7434,9/14/06 15:47,9/23/06 18:00,38.43715496,-118.8967936,,,,,,,,,,,,70,37,,,,,1,0
Ranch Fire Incident Information: ,Riverside,,1658,9/17/06 11:32,9/18/06 19:00,33.67287622,-117.4280112,,,,,,,,,,,66,95,39,39,49,93,6,1,21
Orchard Fire Incident Information: ,Riverside,,1536,9/16/06 14:30,9/18/06 07:00,33.9728889,-116.9774753,,,,,,,,,,,70,90,50,46,57,90,10,1,26
Pinnacles Fire Incident Information: ,San Bernardino,,2370,9/19/06 09:29,9/23/06 06:00,34.2483396,-117.1892078,,,,,,,,,,,64,88,41,43,51,86,23,1,24
Mule Fire Incident Information: ,El Dorado,,70,9/19/06 13:50,9/21/06 08:00,38.7658942,-120.8199252,,,,,,,,,,,66,79,55,45,43,72,21,1,21
Pines Fire Incident Information: ,Los Angeles,,113,9/19/06 15:08,9/23/06 06:00,34.2702093,-118.1534315,,,,,,,,,,,73,129,57,39,32,55,19,1,16
Napa Fire Incident Information: ,Napa,1.9,387,9/22/06 08:04,9/24/06 17:00,38.38237784,-122.3276479,2,0,,,,35,252,22,,,70,88,55,30,25,77,10,1,45
Walker Fire Incident Information: ,Los Angeles,,206,9/23/06 15:56,9/25/06 11:30,34.24734549,-118.2639396,,,,,,,,,,,70,82,57,48,59,100,20,1,24
Noble Fire Incident Information: ,Mendocino,7.1,1014,9/24/06 18:46,10/1/06 07:00,39.9660063,-123.7950389,4,,,,2,50,911,28,5,9,61,64,57,46,58,68,49,1,13
Skunk Fire Incident Information: ,El Dorado,,80,10/24/06 14:00,10/25/06 07:00,38.85070483,-120.0662333,,,,,,,,,,,,63,30,,,,,1,0
Felter Fire Incident Information: ,Santa Clara,,200,10/25/06 14:30,10/26/06 07:30,37.4427838,-121.8369173,,,,,,,,,,,,72,45,,,,,1,0
Sierra Fire Incident Information: ,San Bernardino,,640,11/6/06 07:30,11/7/06 17:00,33.96106128,-119.9265196,,,,,4,33,250,6,3,2,68,88,46,43,47,80,13,1,26
Lookout Fire Incident Information: ,Riverside,0.654,290,11/12/06 16:30,11/14/06 08:00,33.67048202,-116.1169921,,,,,3,37,39,20,3,5,66,77,54,27,37,62,12,1,32
Jefferson Fire Incident Information: ,San Bernardino,,125,11/21/06 22:18,11/23/06 19:00,34.033625,-117.0430865,,,,,,,,,,,55,75,37,46,81,100,29,1,21
Shekell Fire Incident Information: ,Ventura,4.5,13600,12/3/06 02:30,12/6/06 08:00,34.2944023,-118.9222651,2,0,,,5,135,1450,41,3,18,52,57,46,16,22,27,18,1,23
Westside Fire Incident Information: ,Kern,0.74,4025,12/7/06 18:01,12/10/06 08:00,34.8013678,-118.8753743,,,,,5,4,52,2,5,5,70,79,63,32,24,31,20,1,19
Sequoia Fire Incident Information: ,Ventura,,367,12/8/06 12:05,12/9/06 08:00,34.80491935,-118.7662914,,,,,,,,,,,64,75,50,37,43,78,28,1,11
241 / Windy Ridge Fire Incident Information: ,Orange,,2036,3/11/07 07:53,3/13/07 14:00,33.8243778,-117.7164654,,,,,,,,,,,,66,41,,,,,1,0
Las Flores Fire Incident Information: ,San Bernardino,,4100,3/31/07 10:40,4/2/07 18:30,36.22129778,-119.4633309,,,,,,,,,,,63,82,43,39,50,89,20,1,11
James Fire Incident Information: ,Kern,,1350,4/29/07 14:54,5/3/07 11:00,35.7546732,-118.4253627,,,,,,,,,,,79,91,66,,,,,1,27
Island Fire Incident Information: ,Los Angeles,,4750,5/10/07 12:30,5/15/07 07:00,33.3428193,-118.3282279,,,,,,,,,,,70,75,63,30,25,33,18,1,24
Wofford Fire Incident Information: ,Kern,,525,5/13/07 14:06,5/15/07 08:00,35.7546732,-118.4253627,,,,,,,,,,,73,91,57,,,,,1,34
Del Puerto Fire Incident Information: ,Stanislaus,,155,5/15/07 03:00,5/15/07 17:00,37.4434397,-121.2954081,,,,,,,,,,,,68,46,,,,,1,0
Braye Fire Incident Information: ,Yolo,,450,5/18/07 21:16,5/21/07 06:30,38.5135183,-122.1038609,,,,,,,,,,,59,75,43,45,61,89,36,1,35
Gorman Fire Incident Information: ,Los Angeles,,2050,5/19/07 13:52,5/23/07 08:00,34.7960902,-118.8525956,,,,,,,,,,,,73,54,,,,,1,0
Honey Fire Incident Information: ,Butte,,688,5/22/07 15:15,5/23/07 19:00,33.6749667,-117.2472039,,,,,,,,,,,61,70,52,52,72,94,53,1,24
Bolli Fire Incident Information: ,Shasta,,730,5/22/07 07:25,5/28/07 08:00,40.5572715,-122.3604471,,,,,,,,,,,,81,54,,,,,1,0
Larsen Fire Incident Information: ,Mono,,1080,6/1/07 20:00,6/11/07 08:00,38.5517103,-119.5031121,,,,,,,,,,,,63,34,,,,,1,0
Goldledge Fire Incident Information: ,Tulare,,4196,6/3/07 11:30,7/14/07 07:00,33.7217617,-117.7800353,,,,,,,,,,,68,79,55,55,74,89,47,1,27
Dye Fire Incident Information: ,Tehama,,387,6/13/07 15:35,6/15/07 20:00,40.49242129,-121.9434236,,,,,,,,,,,86,102,70,45,24,44,9,1,34
White Fire Incident Information: ,Kern,9.8,12400,6/24/07 08:57,7/3/07 19:30,34.03107841,-116.6935795,6,32,0,,,12,105,3,,2,,86,54,,,,,1,0
Angora Fire Incident Information: ,El Dorado,11.7,3100,6/24/07 14:10,7/3/07 08:00,38.939926,-119.9771868,3,364,0,,1,13,260,4,1,1,,82,46,,,,,1,0
Deer Fire Incident Information: ,San Diego,,60,7/1/07 13:37,7/3/07 08:00,35.30405324,-121.5918992,,,,,,,,,,,,57,50,,,,,1,0
Banner Fire Incident Information: ,San Diego,,110,7/1/07 14:30,7/3/07 08:00,36.69332412,-120.6162821,,,,,,,,,,,73,93,55,43,37,64,14,1,23
Rancho Fire Incident Information: ,Santa Barbara,,482,6/30/07 17:56,7/3/07 19:00,34.37799369,-119.4040888,,,,,,,,,,,68,77,59,57,70,90,50,1,21
Bayne Fire Incident Information: ,El Dorado,,80,7/1/07 15:00,7/3/07 08:00,38.80013,-120.8560676,,,,,,,,,,,73,88,61,43,36,59,11,1,19
Zaca Fire Incident Information: ,Santa Barbara,118.3,240207,7/4/07 10:53,9/4/07 08:00,34.0601978,-118.3726536,43,1,,,9,26,988,21,3,30,88,104,72,48,30,47,15,1,14
Antelope Complex Incident Information: ,Plumas,,22902,7/5/07 16:00,7/14/07 20:00,40.1783333,-120.5783333,,,,,,,,,,,,86,46,,,,,1,0
Inyo Complex Incident Information: ,Inyo,,35176,7/6/07 13:40,7/14/07 20:00,37.8527024,-118.2862411,,,,,,,,,,,82,102,64,32,16,32,7,1,35
Canyon Fire Incident Information: ,Los Angeles,0.5,815,7/7/07 14:35,7/9/07 08:00,34.466452,-118.3279167,,,,,,9,167,7,,,82,100,64,54,43,71,22,1,11
Elk Complex Incident Information: ,Siskiyou,,17684,7/10/07 22:00,9/17/07 07:30,41.7963785,-123.3749138,,,,,,,,,,,,,,,,,,1,0
Fletcher Fire Incident Information: ,Modoc,,8121,7/10/07 13:15,7/19/07 19:00,33.7086562,-117.7717959,,,,,,,,,,,70,79,59,59,74,93,54,1,24
China-Back Complex Incident Information: ,Siskiyou,,2906,7/10/07 00:00,7/19/07 19:00,41.715694,-122.6377053,,,,,,,,,,,75,99,54,48,42,69,15,1,11
Seven Eleven Fire Incident Information: ,Del Norte,,140,7/11/07 01:00,7/16/07 19:30,41.8454831,-123.969508,,,,,,,,,,,57,64,52,52,88,100,63,1,14
Colby Fire Incident Information: ,Tehama,,260,8/10/07 15:00,8/13/07 07:00,39.89836189,-121.8675473,,,,,,,,,,,79,93,64,48,37,63,17,1,14
Tar Fire Incident Information: ,Fresno,5.6,5644,8/10/07 17:34,8/17/07 19:00,36.0041223,-120.1290272,3,,,,1,6,219,8,1,6,79,99,61,48,36,75,15,1,19
80 Fire Incident Information: ,Nevada,,78,8/22/07 13:46,8/24/07 20:00,38.93303931,-120.4468715,,,,,,,,,,,81,95,64,52,36,52,28,1,16
Snow Fire Incident Information: ,San Bernardino,,100,8/21/07 11:57,8/25/07 18:30,33.7467471,-116.7152556,,,,,,,,,,,,91,61,,,,,1,0
Italian Fire Incident Information: ,Tuolumne,,102,8/22/07 23:00,8/24/07 19:30,38.0459422,-120.3941868,,,,,,,,,,,,90,57,,,,,1,0
Wallow Fire Incident Information: ,Trinity,,1440,8/29/07 14:00,9/3/07 07:30,40.5543106,-123.1830839,,,,,,,,,,,,91,59,,,,,1,0
Grouse Fire Incident Information: ,Tulare,,1022,8/27/07 12:00,9/17/07 07:30,36.3127167,-118.3220313,,,,,,,,,,,,,,,,,,1,0
Stevens Fire Incident Information: ,Santa Clara,,151,8/30/07 12:30,9/2/07 08:00,37.2975101,-122.0795202,,,,,,,,,,,,73,52,,,,,1,0
Quien Fire Incident Information: ,Monterey,,486,8/30/07 03:45,9/3/07 09:30,35.33726811,-120.9829556,,,,,,,,,,,,59,52,,,,,1,0
Butler Fire Incident Information: ,San Bernardino,,85,9/1/07 00:30,9/4/07 18:00,34.2598792,-116.9980576,,,,,,,,,,,,88,59,,,,,1,0
North Fire Incident Information: ,Los Angeles,,2200,9/2/07 14:30,9/8/07 08:00,34.44245448,-117.9710546,,,,,,,,,,,97,109,82,61,32,43,23,1,13
Lazy Fire Incident Information: ,Trinity,,599,8/29/07 13:40,9/10/07 13:00,39.7929324,-123.2480687,,,,,,,,,,,,,,,,,,1,0
Cherry Fire Incident Information: ,Siskiyou,,95,8/29/07 19:00,9/6/07 18:00,41.2973586,-123.1303203,,,,,,,,,,,,91,59,,,,,1,0
Lick Fire Incident Information: ,Santa Clara,10.2,47760,9/3/07 13:45,9/11/07 19:45,37.186776,-121.547208,9,24,,,5,46,868,30,3,10,,72,54,,,,,1,0
Mariposa Fire Incident Information: ,Santa Barbara,,176,9/3/07 20:00,9/5/07 08:00,33.8857416,-118.9886821,,,,,,,,,,,79,90,66,59,57,73,40,1,19
Colina Fire Incident Information: ,Riverside,,430,9/10/07 14:45,9/12/07 10:00,33.5162498,-117.1711849,,,,,,,,,,,68,90,46,50,55,93,20,1,23
Pine Fire Incident Information: ,San Diego,,2170,9/12/07 14:10,9/16/07 07:00,32.8214402,-116.5291841,,,,,,,,,,,75,97,55,36,29,47,11,1,32
Butler II Fire Incident Information: ,San Bernardino,,14039,9/14/07 13:51,9/21/07 10:00,34.2438963,-116.9114215,,,,,,,,,,,,86,55,,,,,1,0
Angel Fire Incident Information: ,San Diego,4.1,837,9/15/07 13:31,9/19/07 18:00,33.0784244,-116.6022008,7,25,,,2,22,479,13,,15,66,75,59,57,79,90,57,1,16
Canyon Fire Incident Information: ,Los Angeles,5.8,4521,10/21/07 04:55,11/1/07 19:00,34.0335102,-118.7424244,0,22,,,,,,,,,63,68,55,25,24,45,16,1,39
Harris Fire Incident Information: ,San Diego,21,90440,10/21/07 09:23,11/5/07 21:45,32.5996179,-116.5819616,40,563,,,,36,756,15,3,6,55,64,45,16,46,82,9,1,69
Ranch Fire Incident Information: ,Los Angeles,9,58401,10/20/07 21:42,11/1/07 18:30,33.57818749,-117.6785231,,0,,,,,73,,,,63,79,45,52,72,93,48,1,23
Witch Fire Incident Information: ,San Diego,18,197990,10/21/07 12:35,11/6/07 06:00,32.9593407,-118.5228845,42,1736,,,1,25,224,6,,3,66,75,59,21,20,42,9,1,61
Buckweed (Agua Dulce) Fire Incident Information: ,Los Angeles,7.4,38000,10/21/07 12:55,11/1/07 19:00,34.5202409,-118.3182023,0,93,,,,,,,,,63,68,55,25,24,45,16,1,39
Nightsky Fire Incident Information: ,Ventura,,35,10/21/07 10:35,11/1/07 19:00,34.285558,-118.8820414,,,,,,,,,,,63,68,55,25,24,45,16,1,39
Roca Fire Incident Information: ,Riverside,,270,10/21/07 15:52,11/1/07 18:30,33.4560104,-116.8594952,,,,,,,,,,,,72,46,,,,,1,0
Santiago Fire Incident Information: ,Orange,21.6,28400,10/21/07 17:55,11/9/07 06:30,33.7482157,-117.6730596,16,44,,,2,9,206,2,1,3,66,79,55,14,14,89,7,1,58
Poomacha Fire Incident Information: ,San Diego,20.6,49410,10/23/07 15:13,11/9/07 06:30,33.2675761,-116.8203915,15,217,,,1,13,379,7,2,4,75,86,66,27,17,28,5,1,19
Rice Fire Incident Information: ,San Diego,6.5,9472,10/22/07 16:16,11/1/07 18:00,33.349868,-117.137096,5,248,,,12,112,264,9,6,17,79,90,72,1,5,8,4,1,29
Ammo Fire Incident Information: ,San Diego,0.708047,21004,10/23/07 21:20,10/29/07 06:00,33.2295467,-117.3811366,6,,,,,39,69,,,,75,86,66,27,17,28,5,1,19
Slide Fire Incident Information: ,San Bernardino,23.3,12759,10/22/07 16:32,11/6/07 06:00,34.208958,-117.116052,9,318,,,25,24,57,7,3,30,75,84,68,7,7,10,4,1,45
Grass Valley Fire Incident Information: ,San Bernardino,6.9,1247,10/22/07 17:08,11/6/07 06:00,34.2483396,-117.1892078,1,201,,,,9,96,2,2,,75,84,68,7,7,10,4,1,45
Rosa Fire Incident Information: ,Riverside,,411,10/22/07 23:06,10/31/07 10:00,33.379712,-117.246376,,2,,,,,,,,,79,90,72,1,5,8,4,1,29
Magic Fire Incident Information: ,Los Angeles,,2824,10/22/07 14:17,10/31/07 11:25,34.4221134,-118.5849787,,,,,,5,105,4,,,66,72,63,21,18,21,15,1,40
Sedgewick Fire Incident Information: ,Santa Barbara,,710,10/21/07 06:00,10/30/07 06:00,34.6928067,-120.0406397,,,,,,,,,,,,70,52,,,,,1,0
October Fire Incident Information: ,Los Angeles,,20,10/21/07 09:47,10/30/07 06:00,34.3779607,-118.4675271,,,,,,,,,,,63,68,55,25,24,45,16,1,39
McCoy Fire Incident Information: ,San Diego,,353,12/31/69 16:00,10/30/07 06:00,39.00772823,-122.0211353,,,,,,,,,,,43,54,32,36,81,93,61,1,11
Cajon Fire Incident Information: ,San Bernardino,,250,10/22/07 11:48,10/30/07 06:00,34.2237357,-117.4060017,,,,,1,4,53,1,,3,75,84,68,7,7,10,4,1,45
Coronado Hills Fire Incident Information: ,San Diego,,250,10/22/07 01:46,10/30/07 06:00,33.1295574,-117.1599449,,0,,,,23,77,,,1,79,90,72,1,5,8,4,1,29
Martin Ranch Fire Incident Information: ,San Bernardino,,123,10/23/07 01:03,10/30/07 06:00,34.2166003,-117.3773147,1,0,,,2,23,164,2,,4,84,97,73,27,13,22,10,1,27
Walker Fire Incident Information: ,San Bernardino,,160,10/22/07 10:00,10/30/07 18:00,34.0049997,-117.619451,,,,,,,,,,,75,84,68,7,7,10,4,1,45
Meadowridge Fire Incident Information: ,Los Angeles,,40,10/23/07 04:08,10/30/07 06:00,33.42604476,-118.1545477,,,,,,,,,,,79,86,72,25,13,17,10,1,29
Corral Fire Incident Information: ,Los Angeles,,4901,11/24/07 03:23,11/27/07 08:00,34.0979551,-118.7314142,,,,,,,,,,,61,66,52,10,15,17,12,1,21
Haverford Fire Incident Information: ,San Diego,,25,11/24/07 09:50,11/24/07 21:00,33.0421794,-116.8686944,,,,,,,,,,,61,73,48,23,28,58,7,1,13
Hazardous Materials Incident Incident Information: ,Riverside,,,3/3/08 20:33,3/4/08 08:55,33.5538122,-116.0576625,,,,,,,,,,,61,72,50,9,19,30,7,1,26
Dos Palmas Fire Incident Information: ,Riverside,,261,4/13/08 18:19,4/1/08 10:00,33.571692,-116.0772244,,,,,,,,,,,82,97,66,19,10,16,4,1,19
Santa Anita Fire Incident Information: ,Los Angeles,,584,4/26/08 15:01,5/2/08 07:30,34.1615086,-118.0584171,,,,,,,,,,,75,88,63,36,24,33,14,1,29
Apache Fire Incident Information: ,Riverside,,784,4/29/08 16:35,5/4/08 18:00,33.7947785,-116.2454629,,,,,,,,,,,75,91,59,25,17,28,7,1,35
Colyear Fire Incident Information: ,Tehama,,1331,5/6/08 20:45,5/9/08 21:15,39.92446561,-122.1356781,,,,,,,,,,,73,91,55,45,42,84,16,1,37
Big Horn Fire Incident Information: ,Los Angeles,,490,5/13/08 04:30,5/17/08 18:00,34.2888927,-117.6467218,,,,,,,,,,,64,86,43,43,57,93,7,1,27
Geysers Fire Incident Information: ,Sonoma,,288,5/15/08 04:00,5/16/08 19:00,38.13975465,-122.6706792,,,,,,,,,,,86,100,70,48,29,57,17,1,32
Feather Fire Incident Information: ,Butte,,100,5/15/08 03:00,5/16/08 12:00,39.847624,-121.394055,,,,,,,,,,,84,102,70,48,28,49,14,1,26
Sierra Fire Incident Information: ,El Dorado,,67,5/15/08 10:46,5/15/08 19:30,38.7139362,-120.6208746,,,,,,,,,,,86,97,75,46,26,31,19,1,27
Avocado Fire Incident Information: ,Fresno,,1200,5/20/08 15:10,5/22/08 18:30,36.8005048,-119.3590131,,,,,,,,,,,79,95,63,45,34,55,12,1,45
Summit Fire Incident Information: ,Santa Clara,16.1,4270,5/22/08 05:17,5/30/08 10:00,37.01542523,-121.5933047,16,99,,,5,45,946,32,1,21,,68,48,,,,,1,0
Grapevine Fire Incident Information: ,Kern,,507,6/6/08 09:29,6/7/08 07:00,34.22279541,-119.033982,,,,,,,,,,,77,90,64,45,32,43,25,1,11
Indians Fire Incident Information: ,Monterey,,57943,6/8/08 12:36,6/24/08 07:45,34.7419849,-119.6818236,,,,,,,,,,,,70,52,,,,,1,0
Ophir Fire Incident Information: ,Butte,,1600,6/10/08 11:27,6/13/08 10:15,39.4639695,-121.5788486,1,49,,,,10,99,,1,5,73,84,64,36,25,43,13,1,50
Latrobe Fire Incident Information: ,El Dorado,,100,6/10/08 10:00,6/10/08 16:00,38.15005862,-120.2547147,,,,,,,,,,,,86,55,,,,,1,0
La Grange Fire Incident Information: ,Tuolumne,,1346,6/10/08 14:08,6/12/08 07:00,37.81943181,-120.5136889,,,,,,,,,,,81,91,70,36,25,57,8,1,50
Pine Fire Incident Information: ,Sonoma,,860,6/10/08 10:01,6/13/08 18:15,38.8232795,-122.9227518,,,,,,,,,,,73,90,61,37,30,54,10,1,24
41 Fire Incident Information: ,Madera,,3300,6/10/08 16:35,6/11/08 13:00,37.35320549,-120.5625338,,,,,,,,,,,79,91,64,39,31,63,9,1,47
Jackson Fire Incident Information: ,Sacramento,,6400,6/10/08 12:00,6/13/08 10:15,38.5290306,-121.3350068,,,,,,,,,,,68,81,55,39,36,72,13,1,23
Humboldt Fire Incident Information: ,Butte,20.5,23344,6/11/08 12:13,6/21/08 18:00,39.32358379,-120.5394943,10,261,,,1,15,261,5,,3,70,84,55,30,24,33,16,1,21
Martin Fire Incident Information: ,Santa Cruz,5.4,520,6/11/08 14:54,6/27/08 12:00,36.9013885,-121.7784283,4,14,,,,16,131,4,,4,,68,50,,,,,1,0
Whiskey Fire Incident Information: ,Tehama,,7783,6/12/08 12:37,6/28/08 07:40,40.04345481,-122.1282665,,,,,,,,,,,82,97,68,27,15,23,7,1,37
Electra Fire Incident Information: ,Amador,,400,6/13/08 16:00,6/26/08 06:00,38.3310695,-120.6706738,,,,,,,,,,,75,97,57,39,29,55,10,1,14
Trabing Fire Incident Information: ,Santa Cruz,,630,6/20/08 13:58,6/26/08 16:30,36.9013885,-121.7784283,2,20,,,1,5,122,3,,1,,70,52,,,,,1,0
Wild Fire Incident Information: ,Napa,0.651574,4089,6/21/08 16:00,6/26/08 06:00,38.2489348,-122.0514361,1,1,150,,23,40,540,14,1,5,79,100,59,39,30,62,8,1,34
Whitehurst / Hummingbird Fire Incident Information: ,Santa Clara,0.593963,794,6/21/08 13:57,6/26/08 11:00,37.1284493,-121.6301185,,,,,0,10,104,2,,2,,72,52,,,,,1,0
Brown Fire Incident Information: ,San Benito,,3870,6/21/08 15:10,6/24/08 07:30,36.46185377,-121.2189539,1,,,,6,17,193,6,,,,72,52,,,,,1,0
Basin Complex (Gallery and Basin Fires) Incident Information: ,Monterey,,8500,6/23/08 12:15,6/24/08 07:45,36.3614749,-121.856261,,,,,,,,,,,54,59,50,46,80,89,69,1,24
Lime Complex Incident Information: ,Trinity,38.78652,55773,6/20/08 16:50,7/27/08 06:00,40.6173635,-123.4525362,,1,,,11,32,610,13,6,16,55,63,50,,,,,1,0
Walker Fire Incident Information: ,Lake,,14500,6/22/08 16:41,7/3/08 07:00,39.1192096,-122.5401025,,,35,,10,17,134,,1,9,70,90,48,36,39,66,11,1,21
Popcorn Fire Incident Information: ,Shasta,,3100,6/24/08 08:14,6/26/08 10:00,40.8943324,-121.1774706,,,,,7,8,227,7,2,10,,,,,,,,1,0
Oliver Complex Incident Information: ,Madera,,2789,6/21/08 17:10,7/6/08 06:00,36.95882355,-119.8249392,,,,,,,,,,,93,109,75,46,30,50,9,1,39
Corral Fire Incident Information: ,Lassen,3.6,12434,6/23/08 20:00,7/8/08 07:30,36.67954237,-119.0536414,,,,,7,15,281,7,2,10,81,97,64,36,24,43,4,1,24
Shasta-Trinity Lightning Complex Incident Information: ,Shasta,55.4,86500,6/21/08 17:00,7/26/08 17:30,40.741394,-123.2487273,51,22,,,9,32,680,19,,24,,90,61,,,,,1,0
Butte Lightning Complex Incident Information: ,Butte,85.3,59440,6/21/08 14:00,7/29/08 18:00,39.489439,-121.476028,71,117,,,15,60,1218,28,6,30,86,102,70,46,23,46,12,1,23
Mendocino Lightning Complex Incident Information: ,Mendocino,48.5,54817,6/20/08 18:00,7/19/08 18:30,39.4450776,-123.8049098,47,2,0,,12,102,1922,60,8,28,75,99,52,36,36,64,8,1,16
Freeway Complex Incident Information: ,Orange,16.1,30305,11/15/08 09:07,11/19/08 18:00,33.866677,-117.752864,,361,,,4,156,1633,48,16,5,81,90,70,10,7,13,5,1,39
Tea Fire Incident Information: ,Santa Barbara,5.7,1940,11/13/08 18:30,11/17/08 18:00,34.4376631,-119.6418816,,219,,,1,62,756,23,,3,63,75,48,50,66,83,49,1,14
Sesnon Fire Incident Information: ,Los Angeles,12.6,14703,10/13/08 10:38,10/18/08 08:00,34.44460194,-118.0319268,,89,,,8,88,1377,40,2,17,61,68,52,19,22,28,17,1,35
Fort Fire Incident Information: ,San Bernardino,,1500,2/5/09 11:41,2/5/09 11:41,36.8021589,-118.195915,,,,,,,,,,,,,,,,,,1,0
Jesusita Fire Incident Information: ,Santa Barbara,20,8733,5/5/09 13:45,5/18/09 17:00,34.4508303,-119.7129141,,177,,,37,490,4543,110,14,45,63,73,52,54,73,93,53,1,24
Gladding Fire Incident Information: ,Placer,,960,9/1/08 12:39,9/3/08 09:00,38.891565,-121.2930079,,40,,,1,10,129,4,,,68,88,50,34,31,58,14,1,26
Willow Fire Incident Information: ,San Diego,,65,5/22/09 12:58,5/23/09 08:00,32.7651505,-116.8869305,,,,,,,,,,,63,66,61,54,74,83,64,1,19
Pala Fire Incident Information: ,San Diego,,122,5/24/09 14:56,5/25/09 11:00,33.47941494,-117.7898549,,,,,,,,,,,63,77,52,52,71,100,43,1,26
Oliver Fire Incident Information: ,Riverside,,503,5/27/09 15:43,5/28/09 08:00,33.8685628,-117.1766137,,,,,,,,,,,66,81,52,55,74,100,44,1,27
Telegraph Fire Incident Information: ,Mariposa,,34091,7/25/08 15:15,8/6/08 12:00,38.00621348,-121.1620288,38,130,,,4,23,336,6,2,12,75,97,55,46,40,77,11,1,19
Craig Fire Incident Information: ,Butte,11,2001,8/3/08 14:40,8/11/08 19:00,39.5137752,-121.556359,19,,2,,7,40,545,19,2,13,75,91,61,46,37,59,13,1,21
Finley Fire Incident Information: ,Nevada,,100,12/31/69 16:00,8/31/08 08:00,39.363135,-121.322722,,,,,,,,,,,43,57,30,,,,,1,0
Smitty Fire Incident Information: ,Calaveras,,100,9/1/08 16:29,9/4/08 08:00,36.82681297,-120.2227056,,,,,,,,,,,72,86,57,37,37,62,12,1,23
Canyon Fire Incident Information: ,Nevada,,5,9/5/08 14:33,9/6/08 08:00,39.20871169,-120.646252,,,,,,,,,,,82,95,72,39,22,30,16,1,19
Colony Fire Incident Information: ,Humboldt,,155,9/10/08 08:00,9/7/08 15:39,40.11900867,-124.1182256,,,,,,15,200,12,1,4,,63,52,,,,,1,0
Deer Fire Incident Information: ,Napa,0.583,300,10/13/08 08:00,10/10/08 16:45,38.6706612,-122.0880281,,3,,,1,40,395,22,,5,66,82,46,27,28,66,12,1,29
Marek Fire Incident Information: ,Los Angeles,,4824,10/28/08 08:00,10/12/08 02:03,33.84118681,-118.7970868,,,,,,,,,,,81,97,64,30,18,21,13,1,14
South Fire Incident Information: ,Ventura,,30,10/13/08 03:35,10/13/08 03:35,34.43397751,-118.2103006,,,,,,,,,,,61,68,52,19,22,28,17,1,35
Angel Island Fire Incident Information: ,Marin,,380,10/12/08 21:00,10/12/08 21:00,37.8636084,-122.4319496,,,,,,,,,,,57,75,43,16,20,42,9,1,39
Shockey Fire Incident Information: ,San Diego,,200,10/14/08 14:45,10/14/08 19:00,32.6319717,-116.4338497,,,,,,5,51,19,,2,64,75,54,10,15,15,15,1,37
Juliet Fire Incident Information: ,San Diego,,4026,10/13/08 10:49,10/14/08 08:00,33.2295467,-117.3811366,,,,,,,,,,,68,81,55,18,16,26,7,1,19
San Antonio Fire Incident Information: ,San Bernardino,,115,10/23/08 14:04,10/23/08 14:04,37.2991328,-121.9577222,,,,,,,,,,,,70,46,,,,,1,0
El Cerritos Fire Incident Information: ,San Luis Obispo,,60,11/14/08 08:30,11/14/08 08:30,35.19626341,-120.6590767,,,,,,,,,,,72,88,57,48,45,67,25,1,23
Sayre Fire Incident Information: ,Los Angeles,,11262,11/14/08 22:29,11/20/08 20:00,34.74365848,-118.3806448,,,,,,,,,,,72,79,66,37,28,39,17,1,35
Tulare Unit Lightning Complex Incident Information: ,Tulare,,459,5/28/09 19:30,6/1/09 07:00,36.38878729,-118.2607257,,,,,,,,,,,,,,,,,,1,0
Haybarn Fire Incident Information: ,San Diego,,102,6/16/09 13:20,6/17/09 07:30,38.13984191,-120.0143224,,,,,,,,,,,,68,37,,,,,1,0
Rumsey Fire Incident Information: ,Yolo,,716,6/29/09 02:45,7/1/09 18:00,36.65116245,-118.6674566,,,,,,,,,,,,,,,,,,1,0
De Luz Fire Incident Information: ,Riverside,,100,7/2/09 14:34,7/3/09 08:00,33.51624265,-116.2009195,,,,,,,,,,,93,108,79,54,33,49,16,1,34
Backbone Fire Incident Information: ,Trinity,,6324,7/7/09 11:13,8/8/09 07:00,41.0165284,-123.0861477,,,,,,,,,,,,95,63,,,,,1,0
Elm Fire Incident Information: ,Riverside,,270,7/7/09 15:19,7/8/09 08:00,33.8981492,-116.7545474,,,,,,,,,,,,88,57,,,,,1,0
Osito Fire Incident Information: ,Los Angeles,,304,7/13/09 12:18,7/15/09 08:00,33.9055489,-117.9014655,,,,,,,,,,,75,95,55,54,48,78,23,1,26
Howland Fire Incident Information: ,Plumas,,144,7/15/09 00:00,7/17/09 07:30,39.8872948,-120.1517225,,,,,,,,,,,81,99,63,36,22,37,9,1,35
Mammoth Fire Incident Information: ,Placer,,643,7/16/09 14:33,7/18/09 19:30,35.47748726,-119.7532565,,,,,1,24,358,12,1,3,91,106,75,48,28,40,15,1,23
Panther Fire Incident Information: ,Humboldt,,12,7/17/09 11:40,7/18/09 19:20,40.306744,-123.9039139,,,,,,,,,,,57,63,52,,,,,1,0
Forks Fire Incident Information: ,Inyo,,3268,7/18/09 14:54,7/23/09 18:00,37.212377,-118.613728,,,,,,,,,,,81,104,61,41,25,48,11,1,40
Tennant Fire Incident Information: ,Siskiyou,,3225,7/19/09 15:02,7/24/09 17:30,40.17899892,-123.6065841,,,,,,,,,,,,63,52,,,,,1,0
Lake Fire Incident Information: ,San Luis Obispo,,123,7/19/09 13:35,7/21/09 18:00,35.7487222,-120.9331295,,,,,,,,,,,,57,50,,,,,1,0
Sheppard Fire Incident Information: ,Mendocino,,105,7/20/09 15:24,7/21/09 18:00,39.39236598,-123.0403571,,,,,,,,,,,81,102,57,43,40,72,8,1,26
Ash Fire Incident Information: ,Madera,,393,7/27/09 16:45,7/29/09 08:00,37.0202397,-119.6964205,,,,,2,7,160,4,,2,90,106,73,48,33,57,9,1,21
Springs Fire Incident Information: ,Riverside,,42,7/28/09 19:23,7/29/09 07:00,33.64369238,-116.2196181,,,,,,,,,,,99,115,82,48,25,40,9,1,39
Wildcat Fire Incident Information: ,Tuolumne,,1255,7/29/09 18:03,8/22/09 18:00,38.12226115,-120.2659175,,,,,,,,,,,,93,61,,,,,1,0
Knight Fire Incident Information: ,Tuolumne,,6130,7/26/09 15:35,8/11/09 18:00,37.70494075,-120.5375657,,,,,,,,,,,81,100,61,54,48,78,18,1,19
Dodge Complex Incident Information: ,Lassen,,1600,8/1/09 10:18,8/5/09 07:00,38.34435952,-120.2048651,,,,,,,,,,,,79,45,,,,,1,0
Upper Complex Incident Information: ,Modoc,,129,8/1/09 17:50,8/4/09 18:20,41.1941359,-120.9442135,,,,,,,,,,,75,95,55,45,40,64,15,1,52
SHU Lightning Incident Information: ,Shasta,31.6,17623,8/1/09 21:00,8/18/09 07:00,40.87526,-121.661371,22,,,0,7,53,926,27,3,24,,,,,,,,1,0
Sam Jones Fire Incident Information: ,Monterey,,3468,8/2/09 16:30,8/4/09 18:25,36.0086825,-121.2369266,,,,,,,,,,,,59,52,,,,,1,0
Ponderosa Fire Incident Information: ,Monterey,,458,8/1/09 19:45,8/7/09 07:00,35.16938702,-121.3539195,,,,,,,,,,,,59,52,,,,,1,0
La Brea Fire Incident Information: ,Santa Barbara,,89489,8/8/09 14:50,8/22/09 06:15,33.68728,-117.661689,,,,,,,,,,,68,82,54,55,66,93,42,1,26
Hat Creek Complex  Incident Information: ,Lassen,,11269,8/1/09 08:00,8/26/09 15:00,38.53016408,-119.6265371,,,,,,,,,,,,79,45,,,,,1,0
Coffin Fire Incident Information: ,Trinity,3.4,1200,8/12/09 14:00,8/17/09 19:00,39.9920245,-123.0884755,5,,,,2,31,118,8,1,2,,,,,,,,1,0
Lockheed Fire Incident Information: ,Santa Cruz,26.6,7817,8/12/09 19:16,8/23/09 18:30,36.9013885,-121.7784283,10,14,0,,5,50,819,8,6,28,,70,54,,,,,1,0
Summit Fire Incident Information: ,Colusa,,350,8/13/09 12:42,8/14/09 18:00,39.3757373,-122.5470576,,,,,,,,,,,73,88,61,46,42,65,19,1,26
Corral Fire Incident Information: ,Alameda,2.03,12500,8/13/09 15:00,8/18/09 07:00,37.7457619,-121.6582839,2,,,1,11,41,335,12,7,7,79,91,66,48,40,59,21,1,34
Yuba Fire Incident Information: ,Yuba,12.1,3891,8/14/09 12:28,8/23/09 19:00,39.361958,-121.253794,41,2,0,,13,4,76,3,,26,72,82,63,45,39,56,24,1,23
Elephant Fire Incident Information: ,Plumas,,445,8/16/09 14:37,8/24/09 07:00,39.94032482,-121.1199891,,,,,,,,,,,73,90,61,39,28,42,21,1,13
Bryson Fire Incident Information: ,Monterey,,3383,8/26/09 13:26,8/28/09 11:00,35.936744,-121.082403,,5,,,1,10,227,10,2,4,,59,52,,,,,1,0
Morris Fire Incident Information: ,Los Angeles,,2168,8/25/09 16:27,9/3/09 07:00,34.1762537,-117.8827431,,,,,,,,,,,72,97,50,48,45,83,20,1,26
Red Rock Fire Incident Information: ,Siskiyou,,1364,8/21/09 18:40,9/4/09 18:15,41.5506282,-122.9076819,,,,,,,,,,,73,95,52,43,38,66,10,1,13
Big Meadow Fire Incident Information: ,Mariposa,,7425,8/26/09 12:08,9/7/09 07:00,37.6978137,-119.7528874,,,,,,,,,,,,,,,,,,1,0
Camp Pendleton Fire Incident Information: ,San Diego,,560,8/26/09 12:00,8/30/09 18:00,34.20563278,-119.7497954,,,,,,,,,,,66,82,52,52,60,87,33,1,19
Day Fire Incident Information: ,Lassen,1.66,853,8/27/09 13:27,8/30/09 18:30,33.84247836,-121.0946048,,,,,12,34,534,16,4,14,,,,,,,,1,0
Gloria Fire Incident Information: ,Monterey,4,6437,8/27/09 14:57,8/31/09 18:00,35.01109618,-120.9625877,2,2,0,,9,35,367,12,,6,64,81,48,48,63,93,28,1,35
Foresthill Fire Incident Information: ,Placer,,30,8/27/09 17:36,8/28/09 10:00,38.51681241,-120.79804,,,,3,2,10,100,4,2,3,81,95,64,39,26,40,12,1,14
Cottonwood Fire Incident Information: ,Riverside,,2409,8/27/09 17:13,8/31/09 18:00,33.745846,-116.835502,,,,,,,,,,,,90,61,,,,,1,0
Station Fire Incident Information: ,Los Angeles,,160577,8/26/09 15:30,10/16/09 19:00,34.19540506,-118.4268486,,,,,,,,,,,82,100,64,41,24,31,16,1,21
PV Fire Incident Information: ,Los Angeles,,235,8/27/09 20:02,8/29/09 12:50,33.7444613,-118.3870173,,,,,,,,,,,88,97,79,27,12,22,6,1,24
Pacheco Fire Incident Information: ,Santa Clara,,1650,8/29/09 14:20,8/30/09 18:00,37.0661203,-121.192643,2,,0,,2,36,359,4,3,4,,75,54,,,,,1,0
Forty Nine (49) Fire Incident Information: ,Placer,1,343,8/30/09 14:22,9/2/09 18:00,38.9456497,-121.0982498,3,75,0,,19,29,199,2,6,14,81,90,73,41,27,44,12,1,26
Oak Glen 3 Fire Incident Information: ,San Bernardino,6.9,1159,8/30/09 13:46,9/8/09 06:30,34.0551431,-116.9774516,4,0,0,7,14,11,174,5,8,10,79,102,54,50,42,77,17,1,19
Pendleton Fire Incident Information: ,San Bernardino,1.49,860,8/31/09 15:30,9/4/09 07:15,34.033625,-117.0430865,1,0,0,,2,45,441,14,1,12,75,97,54,55,50,84,25,1,21
Black Fire Incident Information: ,Siskiyou,,103,9/2/09 13:42,9/4/09 21:30,41.98320114,-121.377368,,,,,,,,,,,66,84,48,39,41,71,17,1,45
Cherry Fire Incident Information: ,Solano,,200,9/4/09 01:30,9/4/09 21:25,38.3514527,-121.9844151,,,,,,,,,,,63,75,50,52,65,89,41,1,34
Ortega Fire Incident Information: ,Orange,,30,9/4/09 00:04,9/4/09 21:30,33.62265942,-117.6121176,,,,,,,,,,,79,99,61,57,50,81,26,1,23
Oasis Fire Incident Information: ,Lake,3.5,1575,9/7/09 18:07,9/12/09 18:45,39.4041792,-123.3521159,4,,,4,2,2,153,7,8,14,66,82,52,45,53,89,17,1,21
Magnolia Fire Incident Information: ,Nevada,,29,9/12/09 14:30,9/13/09 07:10,38.29887634,-120.5505396,,,0,,,8,79,2,,2,,88,55,,,,,1,0
Vail Fire Incident Information: ,Riverside,,340,9/19/09 15:52,9/20/09 20:00,33.4706942,-116.9910123,,,,,,,,,,,,81,55,,,,,1,0
Silver Fire Incident Information: ,Plumas,,305,9/19/09 15:00,9/21/09 18:00,39.99028335,-120.5130955,,,,,,,,,,,,73,39,,,,,1,0
Pine Fire Incident Information: ,Sonoma,1.7,300,9/21/09 12:00,9/23/09 18:00,38.59732567,-122.6597942,3,,0,7,15,6,415,22,2,5,72,88,54,57,67,100,34,1,19
Guiberson Fire Incident Information: ,Ventura,9.8,17500,9/22/09 10:33,9/27/09 07:30,33.86592877,-118.1564592,10,1,,,6,70,1168,28,,15,75,106,46,43,48,97,4,1,34
Norco Fire Incident Information: ,Riverside,,175,9/22/09 12:00,9/23/09 09:00,33.9349317,-117.5213695,,,,,,,,,,,75,106,46,43,48,97,4,1,34
Crafton Fire Incident Information: ,San Bernardino,,347,9/23/09 16:39,9/26/09 19:00,34.038649,-117.100396,2,,,,4,43,589,24,,5,77,104,50,36,36,96,5,1,26
Power Fire Incident Information: ,Tulare,,326,9/27/09 18:47,9/30/09 19:00,35.91056587,-118.6816552,,,,,,,,,,,88,104,72,41,26,41,11,1,19
Sunset Fire Incident Information: ,Placer,,94,9/30/09 12:25,9/30/09 14:32,34.0862203,-118.406288,,,,,,,,,,,66,79,54,36,37,90,17,1,26
Sheep Fire Incident Information: ,San Bernardino,,7128,10/3/09 14:11,10/10/09 18:30,34.19919966,-118.3676916,,,,,,,,,,,66,81,54,43,40,60,28,1,19
Iaqua Fire Incident Information: ,Humboldt,,170,10/3/09 13:52,10/4/09 22:00,40.4694936,-123.7995008,,,,,,,,,,,48,59,39,43,79,96,59,1,34
Wilson Fire Incident Information: ,Del Norte,,265,10/9/09 23:00,10/12/09 18:00,41.35632382,-123.9083925,,,,,,,,,,,50,55,43,46,94,100,75,1,10
Mill Creek Fire Incident Information: ,Humboldt,,,10/7/09 14:00,10/10/09 18:07,41.0491723,-123.6770485,,,,,,,,,,,48,61,39,45,82,94,65,1,19
Loma Fire Incident Information: ,Santa Cruz,2.7,485,10/25/09 03:00,10/27/09 18:00,36.9013885,-121.7784283,4,3,0,,5,89,1499,59,4,15,64,82,46,48,67,100,26,1,18
241 Fire Incident Information: ,Orange,,,11/24/09 21:54,11/25/09 08:30,33.55927425,-117.7559312,,,,,,,,,,,68,79,57,5,9,28,5,1,34
Tenaja Fire Incident Information: ,Riverside,,107,1/14/10 12:07,1/16/10 09:00,33.98507578,-116.6098727,,,,,,,,,,,,57,41,,,,,1,0
Pedley Fire Incident Information: ,Riverside,,856,5/12/10 13:31,5/13/10 16:30,34.00954089,-116.8614831,,,,,,,,,,,,73,48,,,,,1,0
Cotton Fire Incident Information: ,San Luis Obispo,,2044,5/15/10 09:19,5/18/10 10:00,35.0345938,-119.8770265,,,,,,,,,,,61,73,48,48,77,100,47,1,23
McKinley Fire Incident Information: ,Riverside,,1028,5/20/10 12:48,5/21/10 18:30,33.8772156,-117.5090562,,,,,,,,,,,63,81,45,54,78,100,36,1,27
Fairview Fire Incident Information: ,Riverside,,75,5/26/10 14:35,5/26/10 17:30,33.7369274,-116.8931275,,,,,,,,,,,,77,52,,,,,1,0
Vista Fire Incident Information: ,Contra Costa,,186,6/11/10 16:10,6/11/10 21:00,37.899934,-122.001972,,,,,,,,,,,66,88,46,41,53,86,19,1,35
Robinson Fire Incident Information: ,Merced,,2000,6/11/10 21:15,6/12/10 08:30,37.502812,-120.4213067,,,,,,,,,,,68,84,52,45,49,77,20,1,34
River Fire Incident Information: ,Riverside,,46,6/16/10 13:52,6/17/10 07:00,33.71119501,-116.8558475,,,,,,,,,,,,81,54,,,,,1,0
Narrows Fire Incident Information: ,San Diego,,100,6/16/10 17:00,6/17/10 14:00,33.0784244,-116.6022008,,,,,,,,,,,64,68,59,52,67,81,56,1,19
Diablo Fire Incident Information: ,Alameda,,475,6/18/10 16:35,6/18/10 22:00,37.77208405,-122.0382027,,,,,,,,,,,61,70,48,48,75,96,53,1,34
Ranch Fire Incident Information: ,Riverside,,127,6/22/10 14:33,6/23/10 06:40,33.47562132,-116.538784,,,,,,,,,,,,84,54,,,,,1,0
Millerton (Fine) Fire  Incident Information: ,Fresno,,275,6/22/10 16:00,6/23/10 22:00,36.52229216,-119.1840105,,,,,,,,,,,79,95,63,46,40,65,14,1,24
Pala Fire Incident Information: ,San Diego,,106,6/23/10 15:37,6/24/10 09:00,34.82111447,-118.7557964,,,,,,,,,,,63,72,55,48,66,77,51,1,11
Cactus Fire Incident Information: ,Riverside,,706,7/15/10 14:59,7/18/10 08:15,34.00846817,-117.5296409,,,,,,,,,,,84,99,68,61,46,73,28,1,24
Saddle Fire Incident Information: ,Riverside,,70,7/15/10 15:47,7/16/10 15:50,33.4547868,-117.3580837,,,,,,,,,,,84,99,68,61,46,73,28,1,24
Skinner Fire Incident Information: ,Riverside,,503,7/15/10 15:42,7/17/10 07:55,33.6387855,-116.987345,,,,,,,,,,,84,99,68,61,46,73,28,1,24
Bodfish Fire Incident Information: ,Kern,,552,7/15/10 20:30,7/20/10 17:00,34.30880313,-118.6437829,,,,,,,,,,,90,102,75,52,33,41,20,1,13
Russel Complex Incident Information: ,Lassen,,250,7/25/10 13:25,7/28/10 19:00,40.8143471,-121.0828818,,,,,4,45,734,19,2,8,,,,,,,,1,0
West Fire Incident Information: ,Kern,,1658,7/27/10 15:48,8/3/10 18:00,34.95922036,-118.9676217,,,,,,,,,,,79,93,64,48,36,48,24,1,24
Crown Fire Incident Information: ,Los Angeles,,13918,7/29/10 14:22,8/3/10 07:00,34.5198476,-118.2820066,,,,,,,,,,,72,86,55,48,57,72,33,1,11
Scissors Fire Incident Information: ,San Diego,,110,7/31/10 09:10,8/1/10 19:00,36.03265194,-120.5173698,,,,,,,,,,,81,97,63,50,36,65,20,1,19
Cow Fire Incident Information: ,Mendocino,,293,8/1/10 15:55,8/4/10 19:00,39.57767927,-123.4235207,,,,,,,,,,,73,97,52,48,50,83,16,1,21
Dutch Fire Incident Information: ,Siskiyou,,371,7/31/10 16:20,8/4/10 18:00,41.80068287,-123.3906665,,,,,,,,,,,,,,,,,,1,0
Buzzard Fire Incident Information: ,Shasta,,20,8/3/10 13:28,8/3/10 18:00,40.8390445,-121.9344774,,,,,,,,,,,70,90,48,46,49,77,21,1,10
Green Fire Incident Information: ,Monterey,,35,8/3/10 16:00,8/4/10 07:30,35.01288543,-121.0998725,,,,,,,,,,,64,75,54,54,87,100,50,1,19
Sunnyside Fire Incident Information: ,Lassen,,285,8/8/10 16:26,8/9/10 17:30,38.29218803,-120.9282391,,,,,,,,,,,,90,55,,,,,1,0
Potrero Fire Incident Information: ,Riverside,,256,8/10/10 16:44,8/11/10 08:00,33.70671677,-116.5074132,,,,,,,,,,,,91,61,,,,,1,0
Miller Fire Incident Information: ,San Bernardino,,66,8/17/10 16:58,8/19/10 20:00,34.2840263,-117.3533914,,,,,,,,,,,77,95,59,57,55,90,30,1,27
Stokes Fire Incident Information: ,Tulare,,879,8/17/10 20:05,8/18/10 20:00,35.29681815,-118.2316257,,,,,,,,,,,86,104,70,43,21,31,14,1,39
Converse Fire Incident Information: ,Mariposa,,38,8/18/10 09:39,8/18/10 21:30,37.98994539,-120.9901671,,,,,,,,,,,73,88,57,54,56,86,26,1,23
Rock Fire Incident Information: ,Riverside,,25,8/19/10 19:48,8/20/10 12:00,33.8685875,-117.2851137,,,,,,,,,,,75,93,61,57,49,72,34,1,26
Dobbins Fire Incident Information: ,Yuba,,25,8/20/10 15:55,8/21/10 19:30,39.3679355,-121.2045812,,,,,,,,,,,79,90,68,39,26,33,17,1,16
Monte Fire Incident Information: ,San Diego,,1047,8/21/10 13:02,8/21/10 20:00,32.861741,-116.898725,2,,,,,,,,,,70,75,64,61,73,88,60,1,14
Pozo Fire Incident Information: ,San Luis Obispo,,1263,8/21/10 12:31,8/22/10 07:00,35.3466271,-120.2784475,,,,,,,,,,,72,88,54,48,54,93,15,1,32
Baseline Fire Incident Information: ,Placer,,434,8/20/10 15:45,8/20/10 18:00,38.7517361,-121.3926598,,,,,,,,,,,79,90,68,39,26,33,17,1,16
Monte Fire Incident Information: ,San Diego,,929,8/21/10 01:02,8/22/10 07:00,32.861741,-116.898725,,,,,,,,,,,70,75,64,61,73,88,60,1,14
Santa Fire Incident Information: ,San Diego,,30,8/22/10 16:00,8/22/10 21:00,33.1882636,-116.695414,,,,,,,,,,,72,81,64,57,64,81,45,1,16
Post Fire Incident Information: ,Kern,,1312,8/24/10 12:15,8/24/10 16:20,34.8227556,-118.9448219,,,,,,,,,,,90,109,72,43,17,24,12,1,8
Curry Fire Incident Information: ,Contra Costa,,375,8/24/10 16:00,8/26/10 17:45,37.8795397,-121.8677698,,,,,,,,,,,79,104,52,48,49,83,14,1,19
Indian Fire Incident Information: ,Lake,,363,8/24/10 15:22,8/26/10 17:45,39.1192096,-122.5401025,,,,,,,,,,,81,106,54,46,43,77,9,1,14
Hawk Complex Incident Information: ,Riverside,,62,8/25/10 13:18,8/26/10 08:00,33.946375,-117.4239169,,,,,,,,,,,81,100,61,55,47,81,22,1,23
Bullard Fire Incident Information: ,Yuba,,1307,8/27/10 16:05,8/31/10 17:30,39.3945675,-121.1429343,1,,,,3,31,593,16,2,11,70,84,55,41,32,47,20,1,19
Minto Fire Incident Information: ,Riverside,,81,8/30/10 15:22,8/31/10 09:00,33.68593041,-116.9716764,,,,,,,,,,,63,77,46,48,67,93,39,1,26
Clinton Fire Incident Information: ,Riverside,,65,9/1/10 13:14,9/2/10 12:00,33.87520375,-116.1945001,,,,,,,,,,,82,99,70,37,22,39,12,1,14
Cowboy Fire Incident Information: ,San Diego,,827,9/2/10 13:11,9/6/10 18:00,35.95033842,-116.8790981,4,,0,,3,22,351,10,2,10,,,,,,,,1,0
Palmer Fire Incident Information: ,Riverside,,3,9/3/10 12:09,9/3/10 16:30,33.9587979,-117.0650816,,,,,,,,,,,72,95,48,50,50,93,21,1,23
Gilman Fire Incident Information: ,Riverside,,75,9/5/10 15:55,9/6/10 08:00,33.8895284,-117.0708255,,,,,,,,,,,72,90,54,55,61,87,30,1,24
Windy Fire Incident Information: ,Tehama,,125,9/6/10 12:00,9/14/10 18:00,40.05124711,-122.4420109,2,,,,,,45,2,,,72,84,59,28,23,27,17,1,29
Buckeye Fire Incident Information: ,Humboldt,2.778696,205,9/6/10 09:36,9/10/10 18:00,41.02844534,-123.9584647,5,2,,,2,20,640,24,2,2,57,73,43,45,76,97,31,1,32
Highway 71 Fire Incident Information: ,San Bernardino,,2,9/11/10 16:43,9/12/10 20:00,33.9507817,-117.6767941,,,,,,,,,,,64,82,46,52,72,94,41,1,24
Canyon Fire Incident Information: ,Kern,,9820,9/12/10 13:54,9/20/10 07:30,35.6221013,-118.4828185,,,,,,,,,,,82,97,66,45,33,55,10,1,26
Oregon Fire Incident Information: ,Butte,,40,9/18/10 20:34,9/20/10 07:30,39.5784744,-121.528333,,,,,,,,,,,72,84,61,59,74,100,40,1,23
Whitlock Fire Incident Information: ,Mariposa,,69,9/18/10 16:43,9/19/10 18:30,38.34348864,-120.4292029,,,,,,,,,,,68,82,52,50,62,94,32,1,18
Rainbow Fire Incident Information: ,Riverside,,3,9/24/10 15:52,9/24/10 20:35,33.82000253,-116.5679503,,,,,,,,,,,,81,55,,,,,1,0
Bodega Fire Incident Information: ,Sonoma,,98,9/25/10 12:30,9/26/10 11:50,38.317535,-123.03223,,,,,,,,,,,72,93,50,48,58,94,15,1,14
Lake Fire Incident Information: ,San Luis Obispo,,112,10/9/10 18:36,10/11/10 09:00,35.7552665,-120.9001033,,,,,,,,,,,,59,52,,,,,1,0
Border Fire 12 Incident Information: ,San Diego,,50,10/10/10 13:10,10/11/10 08:30,38.06297796,-122.0816453,,,,,,,,,,,64,81,48,54,71,96,45,1,23
Bridge Fire Incident Information: ,Placer,,56,10/11/10 15:50,10/12/10 08:30,38.7517232,-121.3586011,,,,,,,,,,,72,88,57,50,48,77,20,1,14
Antelope Fire Incident Information: ,San Luis Obispo,,185,10/26/10 15:04,10/27/10 08:00,35.00412687,-120.1138706,,,0,,,,,,,,57,73,43,36,52,87,18,1,24
Rocky Fire Incident Information: ,San Luis Obispo,,25,10/29/10 12:33,10/29/10 16:00,35.21944837,-120.1916783,,,,,,,,,,,55,72,39,37,62,93,31,1,23
Wetsel Fire Incident Information: ,Sacramento,,155,11/3/10 13:56,11/3/10 16:00,38.5290306,-121.3350068,,,,,,,,,,,64,77,52,52,64,94,41,1,13
Scott Fire Incident Information: ,San Bernardino,,125,11/6/10 13:35,11/6/10 22:15,36.38244623,-116.4089809,,,0,2,2,26,181,6,2,,63,79,52,34,36,86,16,1,39
Pacific Fire Incident Information: ,Riverside,,45,11/14/10 12:20,11/14/10 14:45,34.0101923,-117.4188585,,,,,,,,,,,63,81,45,28,27,73,15,1,26
Southern California Flooding Incident Information: ,Orange,,,12/18/10 08:00,12/25/10 10:00,33.5415413,-117.7798538,,,,,,,,,,,55,61,54,57,100,100,100,1,8
Highland Flooding Incident Incident Information: ,San Bernardino,,,12/22/10 05:30,1/1/11 08:00,34.1283442,-117.2086513,,,,,,,,,,,52,57,46,54,98,100,77,1,21
California Tsunami Incident Information: ,Riverside,,,3/11/11 01:00,3/13/11 09:00,33.482093,-117.096106,,,,,,,,,,,,63,41,,,,,1,0
Center Fire Incident Information: ,Inyo,,850,3/18/11 15:18,3/20/11 19:00,37.166632,-118.2940696,1,19,,,,10,100,4,,,43,64,21,7,33,60,5,1,32
Bitterwater Fire Incident Information: ,San Luis Obispo,,187,5/2/11 13:01,5/2/11 18:00,35.69285136,-120.7999947,,,,,,,,,,,,54,46,,,,,1,0
Metz Fire Incident Information: ,Monterey,,832,5/12/11 18:18,5/14/11 08:00,34.7765109,-120.5944182,,1,,,1,10,125,5,1,2,64,82,48,48,67,93,30,1,21
Seven Fire Incident Information: ,San Luis Obispo,,70,5/14/11 13:45,5/14/11 15:30,35.54852576,-119.9165536,,,,,,,,,,,,,,,,,,1,0
Cove Fire Incident Information: ,Kern,,1122,5/27/11 12:30,5/31/11 08:00,35.6496772,-118.4141196,,,,,,,,,,,64,77,50,43,48,64,31,1,24
Cattleman Fire Incident Information: ,Monterey,,384,5/29/11 15:53,5/29/11 20:00,36.0447506,-120.9172191,,,,,,,,,,,,55,48,,,,,1,0
Round Up Fire Incident Information: ,San Bernardino,,144,6/1/11 08:54,6/2/11 19:30,35.71621733,-116.8516166,,,,,,,,,,,66,75,55,19,17,32,11,1,48
Trilogy Fire Incident Information: ,Riverside,,160,6/2/11 12:22,6/7/11 09:00,33.7666071,-117.4872029,,,,,,,,,,,55,73,39,43,61,96,31,1,24
Bee Fire Incident Information: ,San Diego,,100,6/5/11 15:42,6/6/11 19:00,32.6073868,-116.7716968,,,,,,,,,,,55,75,36,34,47,79,14,1,29
Key Fire Incident Information: ,Kern,,151,6/5/11 18:36,6/10/11 19:00,35.62583,-118.51,,,,,,,,,,,72,82,57,52,62,90,33,1,37
Cougar  Fire Incident Information: ,Modoc,,2000,6/8/11 15:00,6/13/11 19:00,37.03024012,-118.3639963,,,,,,,,,,,66,86,48,34,40,66,13,1,32
Bowen Fire Incident Information: ,San Bernardino,,295,6/9/11 18:39,6/10/11 18:00,34.3633526,-117.1621269,,,,,,,,,,,,77,52,,,,,1,0
Canyon Fire Incident Information: ,Riverside,,55,6/11/11 15:26,6/12/11 19:00,33.99249355,-116.5702316,,,,,,,,,,,,79,52,,,,,1,0
Eastman Fire Incident Information: ,Stanislaus,,257,6/11/11 17:53,6/11/11 20:30,37.818619,-120.673369,,,,,,,,,,,66,81,52,48,57,83,30,1,21
Grant Fire Incident Information: ,Alameda,,175,6/14/11 22:20,6/14/11 14:00,37.7457619,-121.6582839,,,,,,,,,,,75,93,57,54,51,80,22,1,26
Antelope Fire Incident Information: ,Kern,,5196,6/19/11 10:15,6/22/11 08:00,34.49930795,-118.1709777,1,2,,,4,17,439,18,2,2,,81,55,,,,,1,0
Canyon Fire Incident Information: ,Fresno,,133,6/19/11 20:15,6/20/11 19:00,36.10193735,-119.6588227,1,0,,,1,19,271,12,1,,73,91,57,54,52,77,27,1,19
Canyon Fire Incident Information: ,Trinity,,30,6/20/11 16:07,6/21/11 06:30,40.7300308,-123.0547346,,,,,,,,,,,68,91,46,46,56,93,20,1,10
Border 9 FIre Incident Information: ,San Diego,,380,6/21/11 06:30,6/21/11 08:00,32.6430502,-116.1078334,,,,,,,,,,,73,93,52,46,45,72,18,1,34
Quinn Fire Incident Information: ,Kern,,3147,6/21/11 12:15,6/21/11 18:00,35.7761309,-119.0533099,,,,,,,,,,,90,106,73,54,29,43,15,1,26
Hughes Fire Incident Information: ,Los Angeles,,100,6/23/11 11:00,6/23/11 13:00,34.4909905,-118.2856169,,,,,,,,,,,,81,57,,,,,1,0
Billy Fire Incident Information: ,Merced,,140,6/23/11 14:41,6/23/11 19:00,37.0386382,-120.9708499,,,,,,,,,,,64,79,50,52,73,100,39,1,32
Sage Fire Incident Information: ,Riverside,,134,6/24/11 12:55,6/25/11 18:00,33.77065824,-116.3485474,,,,,,,,,,,,86,54,,,,,1,0
Telegraph Fire Incident Information: ,Calaveras,,25,6/24/11 16:00,6/24/11 16:55,37.9426396,-120.7174024,,,,,,,,,,,75,93,61,45,28,55,15,1,16
Cobblestone Fire Incident Information: ,Stanislaus,,206,6/24/11 14:30,6/24/11 18:50,37.8159939,-120.78188,,,,,,,,,,,75,93,61,45,28,55,15,1,16
Eastman Fire Incident Information: ,Stanislaus,,300,6/24/11 13:50,6/24/11 18:50,37.8422578,-120.8341921,,,,,,,,,,,75,93,61,45,28,55,15,1,16
Highway Fire Incident Information: ,San Luis Obispo,,438,6/24/11 15:20,6/24/11 18:15,35.662438,-120.3753305,,,,,,,,,,,70,91,48,46,55,93,16,1,35
Rest Fire Incident Information: ,Merced,,576,6/26/11 12:12,6/26/11 18:30,36.8638125,-120.884147,,,,,,,,,,,63,79,46,50,72,100,39,1,32
Lago Fire Incident Information: ,Riverside,,25,6/27/11 11:13,6/27/11 00:45,33.62382589,-116.3695577,,,,,,,,,,,93,113,73,30,22,41,3,1,35
Hornitos Fire Incident Information: ,Mariposa,,19,6/27/11 12:28,6/27/11 13:30,37.5028757,-120.2343778,,,,,,,,,,,77,95,59,52,49,78,19,1,16
Stage Fire Incident Information: ,Tulare,0.839,1213,6/27/11 13:44,6/30/11 07:30,35.8905051,-118.9151972,,,,,,8,110,4,,2,84,100,66,48,32,47,16,1,23
Wheelabrator Fire Incident Information: ,Shasta,,35,6/27/11 16:45,6/27/11 18:30,34.09475701,-120.8103815,,,,,,,,,,,,,,,,,,1,0
Spanish Fire Incident Information: ,Humboldt,,498,7/1/11 20:52,7/3/11 09:30,41.17244904,-123.9576631,,,,,,,,,,,52,59,48,50,92,100,78,1,21
Deep Fire Incident Information: ,San Bernardino,,119,7/3/11 16:05,7/5/11 19:00,34.3960996,-117.1620698,,,,,,,,,,,,88,57,,,,,1,0
Chrisman Fire Incident Information: ,San Joaquin,,400,7/5/11 16:37,7/5/11 20:30,37.6387078,-121.4017783,,,,,,,,,,,75,91,59,55,55,80,30,1,21
Krista Fire Incident Information: ,Yuba,,350,7/9/11 16:06,7/11/11 10:30,39.15708271,-121.3861554,2,,0,,,8,90,4,,,79,90,70,55,47,64,22,1,19
Granite Fire Incident Information: ,Tulare,,832,7/9/11 15:49,7/11/11 19:00,36.0666185,-118.966819,1,6,0,,1,8,90,5,1,2,81,99,64,55,41,73,20,1,21
School Fire Incident Information: ,Riverside,,40,7/13/11 14:04,7/13/11 20:30,33.9383923,-116.8854646,,,,,,,,,,,,90,59,,,,,1,0
Flynn Fire Incident Information: ,Alameda,,400,7/14/11 13:15,7/14/11 15:30,37.7440174,-121.6477867,,,,,,,,,,,63,70,55,52,70,86,53,1,35
White Fire Incident Information: ,Sacramento,,30,7/14/11 14:07,7/14/11 16:45,38.5290306,-121.3350068,,,,,,,,,,,64,77,54,50,63,94,34,1,13
Buffalo Fire Incident Information: ,San Diego,,26,7/15/11 15:22,7/16/11 09:00,32.6176338,-116.1844417,,,,,,,,,,,61,79,43,46,61,100,21,1,32
Scorpion Complex Incident Information: ,Modoc,,2945,7/15/11 18:45,7/18/11 09:00,35.62816244,-117.9235941,,,,,,,,,,,73,88,63,,,,,1,23
Whitewater Fire Incident Information: ,Riverside,,80,7/19/11 10:28,7/19/11 14:05,33.65255586,-117.5216024,,,,,,,,,,,72,90,54,54,53,81,30,1,26
Hahn Fire Incident Information: ,Colusa,,80,7/19/11 15:57,7/19/11 18:30,39.1085102,-122.6202048,,,,5,1,4,,1,1,,73,86,61,54,55,78,31,1,14
San Tim Fire Incident Information: ,Riverside,,80,7/20/11 13:58,7/20/11 19:30,33.38931646,-117.7859347,,,,,,,,,,,70,88,52,55,66,100,31,1,26
Pony Fire Incident Information: ,Riverside,,35,7/21/11 12:25,7/21/11 21:45,33.5582976,-116.7183795,,,,,,,,,,,,90,59,,,,,1,0
McDonald Fire Incident Information: ,Santa Clara,,27,7/21/11 16:50,7/21/11 18:55,37.12137682,-121.7290167,,,,,,,,,,,64,77,54,54,79,100,44,1,32
Eastman Fire Incident Information: ,Madera,,292,7/21/11 20:02,7/21/11 22:30,36.87521474,-120.3349379,,,,,4,14,,,,2,84,99,68,50,37,61,12,1,24
Flynn Fire Incident Information: ,Alameda,,517,7/21/11 21:32,7/22/11 08:20,37.75723246,-121.615517,,,,,,,,,,,75,91,57,54,57,87,26,1,26
Eagle Fire Incident Information: ,San Diego,15.5,14100,7/21/11 22:40,8/1/11 07:00,33.2769753,-116.6494394,18,1,,,1,,8,,,6,68,73,64,59,71,78,60,1,16
Middle Fire Incident Information: ,Calaveras,,100,7/22/11 16:48,7/24/11 04:50,38.1145286,-121.5741027,,,,,,,,,,,64,73,55,55,75,93,57,1,29
Romero Fire Incident Information: ,Merced,,489,7/23/11 08:43,7/23/11 14:00,37.49567207,-121.0509336,,,,,,,,,,,82,99,64,55,48,73,22,1,19
Revis Fire Incident Information: ,Madera,,30,7/24/11 13:00,7/24/11 18:00,37.23669759,-120.6835388,,,,,,,,,,,79,95,61,55,55,84,26,1,16
Murray Fire Incident Information: ,Calaveras,,83,7/25/11 13:44,7/28/11 09:00,36.0823789,-117.9981643,1,,,,3,31,558,18,1,0,90,100,81,,,,,1,32
Southridge Fire Incident Information: ,Sutter,,112,7/27/11 15:40,7/27/11 18:20,39.1214733,-121.6111047,,,,,,,,,,,75,91,63,48,35,59,22,1,14
Tyler 3 Incident Information: ,Tulare,,25,7/30/11 17:37,8/1/11 07:30,35.8860541,-118.730104,,,,,,2,47,2,,,88,100,73,57,36,47,24,1,23
MMU Lightning Complex Incident Information: ,Madera,,129,7/31/11 12:40,8/3/11 08:00,37.5012528,-119.9863602,,,,,,,40,2,,,81,97,64,61,55,78,32,1,21
Lion Fire Incident Information: ,Tulare,,,7/31/11 14:43,8/12/11 17:00,36.19445904,-118.7122809,,,,,,,,,,,82,97,70,64,60,83,37,1,14
Pass Fire Incident Information: ,Mendocino,2.8,617,8/3/11 12:03,8/9/11 17:30,39.20832194,-123.6443004,1,,0,,,6,257,6,,4,73,93,52,50,55,83,26,1,21
Sites Fire Incident Information: ,Colusa,,55,8/3/11 21:42,8/4/11 11:30,39.3120516,-122.3381242,,,,,,,,,,,,,,,,,,1,0
Barn Fire Incident Information: ,San Benito,,36,8/6/11 14:30,8/6/11 18:00,36.2049929,-121.2875463,,,,2,1,7,,,1,,,59,52,,,,,1,0
Rosa Fire Incident Information: ,San Benito,,73,8/6/11 15:00,8/6/11 18:00,36.893784,-121.3499813,,,,,,,,,,,64,73,55,55,85,100,57,1,34
Gilman Fire Incident Information: ,Riverside,,945,8/6/11 16:01,8/7/11 18:00,33.87006954,-116.8655275,,,,,,,,,,,,91,61,,,,,1,0
Yeager Fire Incident Information: ,Yuba,,140,8/11/11 15:55,8/12/11 20:00,39.31146737,-121.1716783,,,,,,,,,,,79,90,68,48,37,44,22,1,21
Ardo Fire Incident Information: ,Monterey,,94,8/12/11 15:54,8/12/11 21:00,35.9482841,-120.8771282,,,,2,1,5,70,1,1,,,59,52,,,,,1,0
Knoxville Fire Incident Information: ,Napa,,508,8/13/11 14:45,8/15/11 11:00,38.5516204,-122.2314164,,,0,0,,14,190,6,3,,64,75,54,54,77,100,53,1,26
Reliz Fire Incident Information: ,Monterey,,214,8/16/11 15:30,8/18/11 21:00,36.2423747,-121.2394702,1,,,,4,22,376,15,,5,,59,52,,,,,1,0
Annie Fire Incident Information: ,Modoc,,,8/18/11 11:00,8/19/11 08:56,41.8605328,-120.15207,,,,,,,,,,,64,88,43,34,40,70,9,1,23
Garza Fire Incident Information: ,Riverside,,189,8/22/11 14:32,8/23/11 07:30,33.93057938,-117.1859917,,,,,,,,,,,70,90,54,55,62,94,29,1,24
Ken Fire Incident Information: ,San Bernardino,,,8/22/11 13:03,8/23/11 08:40,33.92919386,-121.1650312,,,,,,,,,,,,,,,,,,1,0
Patterson Fire Incident Information: ,Alameda,,147,8/23/11 12:13,8/23/11 18:10,37.5303401,-121.7027787,,,,4,2,12,,2,2,,77,97,57,52,56,93,19,1,19
Motor Fire Incident Information: ,Mariposa,,5231,8/25/11 12:00,9/6/11 10:00,37.4452109,-119.9132039,,,,,,,,,,,79,97,61,54,50,78,22,1,16
Barrett Fire Incident Information: ,San Diego,,95,8/27/11 13:04,8/28/11 10:00,38.12082491,-122.7624388,1,,,1,1,10,115,6,2,4,64,75,52,54,77,100,54,1,32
Oasis Fire Incident Information: ,Los Angeles,1,355,8/27/11 13:44,8/30/11 18:30,34.78115014,-118.6154436,3,,,,,5,11,,,,91,108,75,52,28,40,16,1,13
Argyle Fire Incident Information: ,Monterey,,200,8/27/11 13:51,8/29/11 09:00,34.77232454,-121.4989163,,,,,3,6,130,5,,4,,,,,,,,1,0
Beacon Fire Incident Information: ,Solano,,715,8/27/11 17:50,8/29/11 06:00,38.2874213,-121.9757531,,,,,2,20,250,8,,4,64,75,52,54,77,100,54,1,32
Florida Fire Incident Information: ,San Bernardino,,67,8/28/11 11:41,8/30/11 07:00,34.0858248,-117.1122301,2,,0,,,14,117,4,,3,81,97,64,61,51,81,31,1,27
Yosemite Fire Incident Information: ,San Luis Obispo,,85,8/28/11 16:27,8/28/11 18:30,35.662438,-120.3753305,,,,,,,,,,,77,102,50,46,51,93,9,1,23
Ridge Fire Incident Information: ,San Diego,,150,8/28/11 14:29,8/31/11 08:00,32.6458338,-116.487197,,,,,,,,,,,86,102,70,59,47,73,21,1,81
Pala Fire Incident Information: ,San Diego,1.81,223,8/29/11 10:30,8/31/11 19:00,33.373659,-117.0791325,1,,,,3,9,136,4,,5,,90,61,,,,,1,0
Wildcat Fire Incident Information: ,San Diego,,60,8/29/11 15:07,8/29/11 20:00,33.0022032,-116.805801,,,,,,,,,,,72,79,66,63,81,94,62,1,14
Watts Fire Incident Information: ,Fresno,,75,8/29/11 13:00,8/29/11 21:30,36.8969472,-119.4384111,,,,,,,,,,,84,102,68,52,35,57,13,1,23
Keller Fire Incident Information: ,Riverside,,458,8/29/11 13:01,8/29/11 19:00,33.6147826,-117.1673385,,,,,,,,,,,81,95,64,59,57,81,33,1,26
Hawkinsville Fire  Incident Information: ,Siskiyou,,120,9/1/11 16:05,9/4/11 18:00,39.46927686,-123.0638167,,,,,1,13,207,8,,2,75,97,52,48,47,77,16,1,16
Hill Fire Incident Information: ,San Bernardino,,1158,9/2/11 13:00,9/4/11 17:30,34.4114326,-117.3921437,,,,,,,,,,,70,86,54,55,67,100,32,1,21
Soda Fire Incident Information: ,San Luis Obispo,,1300,9/3/11 14:57,9/4/11 21:00,35.227468,-119.8901979,,,,,,,,,,,61,70,54,52,76,93,59,1,16
Red Fire Incident Information: ,Tuolumne,,121,9/3/11 17:00,9/4/11 09:00,37.826063,-120.473921,,,,,,,,,,,81,100,61,50,47,78,16,1,19
Figueroa Fire Incident Information: ,Santa Barbara,,698,9/3/11 13:00,9/6/11 10:00,34.9530337,-120.4357191,,,,,,,,,,,66,88,46,48,71,100,19,1,21
Roadrunner Fire Incident Information: ,Tulare,,335,9/4/11 13:42,9/5/11 12:00,35.5810814,-118.4329117,,,,,,,,,,,82,100,64,45,27,37,16,1,23
Canyon Fire Incident Information: ,Kern,10.3,14585,9/4/11 11:30,9/10/11 20:30,35.0716304,-118.417488,7,100,,,,5,23,,,1,79,100,55,30,18,34,7,1,32
Wagon Wheel Fire Incident Information: ,Los Angeles,,345,9/5/11 12:54,9/7/11 12:00,33.89201615,-117.7178176,,,,,,,,,,,79,93,64,59,59,84,34,1,19
Banning Fire Incident Information: ,Riverside,,55,9/7/11 13:59,9/7/11 17:30,33.9317071,-116.9461583,,,,,,,,,,,82,102,64,59,49,87,25,1,23
Freccero Fire Incident Information: ,Calaveras,,57,9/7/11 16:23,9/9/11 15:30,38.1820202,-120.569239,,,,,,,,,,,79,99,59,39,31,51,10,1,14
Branch 2 Fire Incident Information: ,Mariposa,,40,9/9/11 16:39,9/11/11 07:00,37.520864,-119.982315,,,,,,10,,4,1,2,79,95,61,52,48,72,23,1,13
Milton Fire Incident Information: ,Stanislaus,,1112,9/9/11 19:00,9/10/11 09:00,37.9447524,-120.8437537,,,,,,,,,,,81,97,63,52,45,65,24,1,27
Keene Complex Fires Incident Information: ,Kern,7.2,10470,9/10/11 02:30,9/14/11 08:00,35.62137871,-115.7137589,4,,,,6,95,1416,48,1,1,,,,,,,,1,0
Comanche Fire Complex Incident Information: ,Kern,,29338,9/10/11 04:00,9/16/11 06:00,35.2017986,-118.833105,6,,,,9,32,603,18,,3,88,99,75,55,35,48,21,1,32
Breckenridge Complex Incident Information: ,Kern,7.4,25213,9/10/11 10:55,9/18/11 08:00,34.59571746,-117.1893295,2,,,,,15,451,16,2,4,79,90,70,57,51,78,33,1,29
Hurricane Complex (Previously Santa Lucia Lighting Complex) Incident Information: ,Santa Barbara,,262,9/10/11 11:00,9/12/11 19:45,34.9684358,-120.4203834,,,,,,,,,,,66,81,52,54,73,100,42,1,26
South Lightning (Tennessee Fire) Incident Information: ,Tulare,,407,9/11/11 12:00,9/14/11 10:00,34.28917705,-118.5992737,,,,,,1,,,,,,86,59,,,,,1,0
John Fire Incident Information: ,Inyo,,5353,9/13/11 13:54,9/16/11 07:00,37.30587236,-118.5174617,2,,0,,,,,,,,68,84,52,43,47,77,17,1,39
TCU September Lightning Incident Information: ,Calaveras,,1135,9/9/11 07:33,9/15/11 15:00,32.8152582,-116.9730613,,,,,,,,,,,66,72,63,57,76,88,64,1,16
Southern Region Lightning Incident Information: ,Los Angeles,,10000,9/9/11 22:00,9/15/11 12:00,34.0446749,-118.4539715,,,,,,,,,,,,88,61,,,,,1,0
Mint Fire Incident Information: ,Los Angeles,,634,9/17/11 08:00,12/31/69 16:00,34.512825,-118.3406374,,,,,,,,,,,,86,59,,,,,1,0
West Fire Incident Information: ,Fresno,,40,9/23/11 14:30,9/23/11 22:00,36.246262,-120.3153196,,,,,,,,,,,81,99,61,55,52,84,20,1,21
Ruth Fire Incident Information: ,Trinity,,1460,9/23/11 12:00,9/29/11 08:00,40.57427765,-123.1875791,,,,,,,,,,,70,95,46,43,48,81,11,1,8
Kern County Lightning Fires Incident Information: ,Kern,,20,9/23/11 17:00,9/24/11 12:40,34.9431265,-115.513177,,,,,,,,,,,,,,,,,,1,0
Tulare County Lightning Fires Incident Information: ,Tulare,,400,9/23/11 21:45,9/29/11 08:00,36.2967312,-119.141313,,,,,,,,,,,81,99,64,54,41,64,19,1,13
Honey Fire Incident Information: ,Butte,,70,9/24/11 14:00,9/24/11 17:00,39.7109383,-121.7669705,,,,,,,,,,,79,91,64,50,45,68,20,1,32
Windy Point Fire Incident Information: ,Riverside,,541,9/24/11 18:53,9/29/11 08:00,33.60429297,-117.2000057,,,,,,,,,,,68,77,61,59,79,96,55,1,27
Buckeye Fire Incident Information: ,Mono,,1040,9/25/11 11:00,9/29/11 08:00,38.36931289,-118.8624041,,,,,,,,,,,50,66,37,34,55,83,28,1,27
San Diego County Lightning Fires Incident Information: ,San Diego,,56,9/30/11 14:33,10/1/11 21:00,33.3524478,-116.7392735,0,,0,5,1,23,363,15,3,1,66,75,61,59,82,94,66,1,14
Great Fire Incident Information: ,San Diego,,2135,10/1/11 12:53,10/6/11 07:00,33.63820224,-118.5141877,1,,,,3,15,379,10,1,5,72,84,61,43,35,70,23,1,23
Mill Fire Incident Information: ,San Bernardino,,42,10/21/11 14:27,10/22/11 19:30,34.28329958,-120.3114521,,,,,,,,,,,64,77,54,52,80,94,44,1,13
Loma Fire Incident Information: ,Napa,,90,11/1/11 21:05,11/2/11 08:30,38.3763353,-122.2821288,,,,,,,,,,,61,75,43,25,51,93,8,1,53
Yager Fire Incident Information: ,Humboldt,,60,11/10/11 11:08,11/11/11 17:30,40.537821,-124.05984,,,,,,,,,,,52,64,39,39,70,93,28,1,14
198 Fire Incident Information: ,Monterey,,75,11/30/11 21:35,12/1/11 11:30,36.1952406,-120.7101721,,,,,,,,,,,52,66,36,36,58,92,24,1,39
El Dorado Complex Incident Information: ,El Dorado,,132,12/1/11 11:00,12/4/11 17:30,38.7275566,-120.8263496,2,,,,,2,76,2,,,54,63,45,16,22,37,13,1,27
Tuolumne-Calaveras Wind Event Incident Information: ,Tuolumne,,781,12/1/11 07:08,12/6/11 14:00,37.97503717,-120.1585832,3,,,,1,22,205,6,1,1,48,59,37,9,19,30,11,1,26
Chalk Fire Incident Information: ,Nevada,,20,12/1/11 14:54,12/2/11 09:00,37.7421328,-122.4113356,,,,,,,,,,,57,70,45,19,24,35,13,1,47
Collier Fire Incident Information: ,Contra Costa,,198,12/1/11 18:05,12/2/11 09:00,37.7755563,-121.8287018,,,,,,,,,,,57,70,45,19,24,35,13,1,47
 Soda Fire Incident Information: ,Napa,,200,2/23/12 12:32,2/25/12 08:30,38.357363,-122.2873083,2,,,,1,5,95,5,,,57,79,37,32,56,100,11,1,42
Border #6 Fire Incident Information: ,San Diego,,150,5/17/12 08:32,5/18/12 18:00,36.24629241,-118.077535,,,,1,,20,180,8,4,4,,,,,,,,1,0
Banner Fire Incident Information: ,San Diego,4,5321,5/24/12 14:09,5/29/12 12:00,33.97408636,-117.1436315,4,,,5,2,21,461,18,7,6,63,70,55,54,71,94,57,1,26
Cedar Fire Incident Information: ,Riverside,,40,5/25/12 17:09,5/26/12 07:45,33.48019061,-116.9247003,,,,,,,,,,,,77,52,,,,,1,0
Lakepointe Fire Incident Information: ,Riverside,,256,5/27/12 15:38,5/28/12 06:30,33.4076842,-116.088764,,,,,,,,,,,73,90,57,36,36,62,9,1,27
Paloma Fire Incident Information: ,Calaveras,,37,5/30/12 18:11,6/1/12 08:00,38.2593394,-120.7441047,,,,,,,,,,,68,90,48,46,49,94,16,1,23
Billy Fire Incident Information: ,Merced,,434,5/31/12 11:37,5/31/12 15:30,36.87084463,-120.9809815,,,,,,,,,,,68,88,46,50,63,100,29,1,31
Blue Fire Incident Information: ,Shasta,,42,6/2/12 15:45,6/2/12 20:15,40.6612477,-122.1966317,,,,,,,,,,,66,81,54,45,46,82,22,1,24
George Fire Incident Information: ,Tulare,,1707,6/1/12 15:42,6/14/12 18:45,36.065451,-119.0519235,,,,,,,,,,,82,100,64,54,40,64,17,1,16
Pine Fire Incident Information: ,Fresno,,91,6/5/12 14:43,6/6/12 18:00,36.8227671,-119.3657227,,,,4,2,13,130,4,2,2,63,73,52,39,48,72,23,1,39
Fine Fire Incident Information: ,Madera,,23,6/7/12 13:40,6/8/12 09:00,37.4211922,-120.8600512,,,0,,1,4,,2,,1,72,90,52,46,43,67,19,1,34
5 Mile Fire Incident Information: ,Los Angeles,,525,6/8/12 14:17,6/9/12 19:30,34.73187211,-117.8101149,,,,,,,,,,,75,90,61,39,29,45,15,1,45
Creek Fire Incident Information: ,Riverside,,76,6/8/12 17:29,6/9/12 20:30,33.72155372,-116.4295962,,,,,,,,,,,,77,52,,,,,1,0
Casino Fire Incident Information: ,Yolo,,260,6/9/12 12:41,6/9/12 19:30,38.73433,-122.142141,,,,,,,,,,,63,86,39,34,49,89,8,1,32
Windy Fire Incident Information: ,Butte,,97,6/10/12 14:39,6/11/12 18:45,35.35845005,-120.3867013,,,0,,2,15,200,10,1,7,66,91,43,34,38,65,10,1,24
Gaines Fire Incident Information: ,Mariposa,,1667,6/12/12 12:45,6/14/12 18:45,38.26162665,-119.7165716,1,,0,4,6,2,199,2,4,6,55,79,34,21,30,61,8,1,26
Little Fire Incident Information: ,San Bernardino,,88,6/14/12 08:36,6/15/12 08:45,34.315134,-117.3552154,,,,,,,,,,,68,79,57,54,70,90,42,1,27
Fiddyment Fire Incident Information: ,Placer,,184,6/14/12 13:23,6/14/12 15:30,38.8388895,-121.3494157,,,,,,,,,,,79,90,66,54,43,64,21,1,16
Foothill Fire Incident Information: ,Mendocino,,7,6/14/12 16:24,6/15/12 18:30,39.7900885,-123.2672023,,,,,,,,,,,,,,,,,,1,0
Pond Fire Incident Information: ,Mendocino,,33,6/14/12 17:20,6/15/12 18:30,39.51181287,-123.3960736,,,,,,,,,,,72,86,55,39,42,67,17,1,35
Palermo Fire Incident Information: ,Butte,,100,6/15/12 14:10,6/15/12 16:15,39.4639695,-121.5788486,,2,55,,,,,,,,81,99,61,52,39,66,16,1,27
Welch Fire Incident Information: ,Alameda,,60,6/15/12 15:15,6/16/12 09:00,37.5357884,-121.8530247,,,,,4,3,,4,3,,73,91,54,45,45,72,18,1,29
Waltz Fire Incident Information: ,Placer,,105,6/15/12 17:30,6/15/12 19:00,36.28422087,-121.0696022,,,,,1,16,,2,,4,63,73,52,46,61,83,38,1,32
Highland Fire Incident Information: ,Riverside,,2171,6/16/12 13:20,6/18/12 18:45,33.82328422,-117.4169597,,,,,,,,,,,64,82,48,55,69,94,44,1,0
Old Fire Incident Information: ,San Diego,,995,6/17/12 14:00,6/20/12 18:00,37.58947092,-117.0042301,2,2,0,4,6,25,354,14,4,5,75,93,57,7,12,23,1,1,35
Wohlford Fire Incident Information: ,San Diego,,2,6/17/12 16:00,6/17/12 18:30,33.2018791,-116.9714382,,,,,,,,,,,64,72,59,57,81,87,68,1,14
View Fire Incident Information: ,Riverside,,376,6/18/12 21:15,6/18/12 18:45,33.95030038,-117.5337431,,,,,,,,,,,70,86,55,57,74,100,37,1,0
Skyline Fire Incident Information: ,Tehama,,85,6/19/12 12:48,6/19/12 16:30,40.2547361,-122.2661881,,,,,,,,,,,81,93,68,28,16,31,4,1,32
Otay Fire Incident Information: ,San Diego,,30,6/20/12 14:07,6/21/12 08:00,32.650795,-116.853502,,,,,,,,,,,63,88,39,36,41,70,11,1,34
Horseshoe Fire Incident Information: ,Calaveras,,95,6/21/12 13:46,6/21/12 17:20,37.9559214,-120.6867161,,,,,,,,,,,75,88,63,46,43,63,23,1,32
Hill Fire Incident Information: ,Ventura,,689,6/23/12 12:22,6/24/12 16:00,34.8242444,-118.9462656,,,,,,,,,,,,81,57,,,,,1,0
Oak Fire Incident Information: ,Siskiyou,,192,6/28/12 14:50,6/30/12 05:45,41.632206,-122.838162,1,,,4,2,9,,6,1,5,61,79,43,39,49,83,23,1,13
Cary Fire Incident Information: ,Riverside,,150,6/29/12 00:42,6/30/12 09:00,33.5699462,-116.7364691,,,,6,4,25,,10,4,4,,88,55,,,,,1,0
Dale Fire Incident Information: ,Shasta,,1038,7/5/12 13:54,7/7/12 18:00,38.44099543,-122.233359,1,7,0,,2,46,840,26,6,6,64,75,54,52,67,89,44,1,32
Thunder Fire Incident Information: ,Glenn,,167,7/7/12 12:13,7/7/12 14:30,39.5392738,-122.3326425,,,,,,,,,,,81,99,63,43,30,52,13,1,19
Butte Fire Incident Information: ,Tehama,,140,7/7/12 14:39,7/7/12 15:55,39.9228822,-122.3530192,,,,,,,,,,,81,99,63,43,30,52,13,1,19
Fish Fire Incident Information: ,Inyo,,1103,7/7/12 13:59,7/9/12 19:30,37.068144,-118.2406519,,,0,,1,2,103,4,,9,75,99,52,28,26,43,8,1,45
Mill Fire Incident Information: ,Colusa,,29502,7/7/12 15:00,7/19/12 08:00,39.6030447,-122.8275434,,,,,,,,,,,75,99,52,43,45,77,12,1,23
Oregon Fire Incident Information: ,Butte,,60,7/8/12 15:25,7/8/12 19:45,36.19046741,-119.8298838,,,,4,1,20,,,2,4,81,100,63,48,44,72,15,1,24
Sites Complex Incident Information: ,Colusa,,5,7/8/12 15:45,7/12/12 19:30,39.3506818,-122.4090494,,,,2,4,37,712,26,6,6,,,,,,,,1,0
Turkey Fire Incident Information: ,Monterey,,2700,7/9/12 11:25,7/11/12 19:15,35.8769232,-120.4169582,,,,,4,28,357,14,,3,75,100,50,48,57,100,13,1,37
Panorama Fire Incident Information: ,San Bernardino,,75,7/9/12 13:54,7/9/12 18:00,34.76908526,-119.0802679,,,,,,,,,,,64,73,54,55,75,100,49,1,16
Seven Fire Incident Information: ,Tuolumne,,840,7/10/12 13:41,7/11/12 08:35,37.811075,-120.4667972,,1,,3,1,12,100,3,1,,82,102,63,48,38,60,15,1,27
La Grange Fire Incident Information: ,Tuolumne,,103,7/10/12 13:00,7/10/12 18:30,37.6991615,-120.4244444,,,,2,2,12,92,2,1,,82,102,63,48,38,60,15,1,27
Twin Fire Incident Information: ,Riverside,,45,7/11/12 06:26,7/11/12 00:10,33.8685799,-116.7911387,,,,,,,,,,,,88,57,,,,,1,0
Robbers Fire Incident Information: ,Placer,,2650,7/11/12 15:24,7/20/12 18:00,39.0406072,-120.8860732,12,5,170,,4,20,844,16,1,16,86,100,72,41,22,36,10,1,19
Flat Fire Incident Information: ,Trinity,,1688,7/11/12 17:03,7/17/12 19:00,40.28917328,-123.13691,,,,,,,,,,,75,99,55,46,41,77,13,1,14
Calf Fire Incident Information: ,San Luis Obispo,,640,7/16/12 11:35,7/18/12 16:15,35.3866147,-120.1655605,1,,,,1,73,774,34,3,3,63,73,54,52,69,93,44,1,32
Cody Fire Incident Information: ,Tehama,,94,7/16/12 22:23,7/17/12 07:20,40.0986829,-122.227311,,,,,,,,,,,72,82,61,50,49,68,23,1,40
Sand Fire Incident Information: ,Kern,,,7/17/12 13:00,7/18/12 15:45,35.10318142,-118.5639509,,,,,,,,,,,72,84,59,52,49,65,33,1,23
Euclid Fire Incident Information: ,Riverside,,60,7/18/12 14:55,7/20/12 18:15,33.8896049,-117.6413123,,,,,,,,,,,72,90,52,52,53,93,21,1,27
Forest Fire Incident Information: ,Yolo,,520,7/21/12 10:13,7/24/12 10:00,35.66853957,-119.6728996,4,,0,,10,1,57,1,1,3,86,99,73,55,39,57,20,1,21
Ranch Fire Incident Information: ,Solano,,75,7/22/12 14:26,7/23/12 07:35,38.19852762,-122.0302837,,,,,,,,,,,68,81,55,55,71,93,48,1,35
Gopher Fire  Incident Information: ,Calaveras,,75,7/23/12 10:49,7/23/12 14:00,36.13785044,-121.0718563,,,,,,,,,,,,59,52,,,,,1,0
Amador Lightning Complex Incident Information: ,Amador,,41,7/22/12 23:30,7/26/12 08:30,38.6810084,-120.0739426,,,,,5,3,64,2,4,9,66,86,48,39,37,54,18,1,24
Graham Fire Incident Information: ,Tuolumne,,81,7/25/12 15:10,8/1/12 18:30,37.90424835,-120.015762,6,,,1,1,3,51,2,7,1,72,91,54,39,34,59,12,1,14
Penn Fire Incident Information: ,Calaveras,,134,7/25/12 15:24,7/29/12 07:30,37.01402867,-118.3669237,1,1,,,2,34,68,4,,1,73,97,48,19,23,41,5,1,35
Paskenta Fire Incident Information: ,Tehama,,300,7/25/12 18:30,7/25/12 21:30,39.8128976,-122.6281116,,,,,,,,,,,75,97,57,45,34,67,5,1,19
North Fire Incident Information: ,Mendocino,,375,7/28/12 13:26,7/31/12 18:00,39.82087017,-123.4043287,1,,0,1,1,25,375,20,4,4,,61,52,,,,,1,0
Peak Fire Incident Information: ,Plumas,,800,7/28/12 16:21,8/1/12 19:45,40.0256966,-121.2175695,,,,,,,,,,,75,91,63,48,44,64,14,1,19
South Fire Incident Information: ,Kern,,271,7/29/12 14:00,8/2/12 13:00,35.597557,-118.4913382,,,,,,,,,,,81,95,66,46,34,48,19,1,23
Chips Fire Incident Information: ,Plumas,,75431,7/29/12 01:57,8/31/12 18:30,40.0059971,-121.2491316,,,,,,,,,,,79,93,64,45,35,56,17,1,19
Volcano Fire Incident Information: ,Riverside,,355,8/1/12 11:25,8/5/12 18:30,33.93595281,-117.0978569,,1,,6,3,33,272,10,6,4,72,86,59,57,59,93,31,1,24
Salt Creek Fire Incident Information: ,Shasta,,980,8/1/12 13:38,8/1/12 20:00,40.6804279,-122.3708419,,,,,,,,,,,,95,63,,,,,1,0
Dunnigan Fire Incident Information: ,Yolo,,204,8/2/12 15:01,8/2/12 18:30,38.882568,-121.972246,,,,,,,,,,,81,99,61,48,34,60,17,1,14
Caliente Fire Incident Information: ,San Luis Obispo,,149,8/4/12 06:30,8/4/12 22:00,35.21055346,-120.1210473,,,,,,,,,,,64,75,55,54,83,94,48,1,24
Las Cumbres Fire Incident Information: ,Santa Cruz,,7,8/4/12 07:17,8/4/12 22:00,36.9013885,-121.7784283,,,,,,20,200,10,2,,63,70,55,55,84,100,60,1,24
Hazel Fire Incident Information: ,El Dorado,,47,8/5/12 13:20,8/9/12 08:15,38.04784673,-119.9991998,,,,,,,,,,,64,81,46,41,62,94,14,1,27
Iverson Fire Incident Information: ,Monterey,,63,8/6/12 14:50,8/6/12 16:45,36.5268367,-121.4175521,,,,,,,,,,,72,93,48,54,65,100,26,1,27
Piute Complex Incident Information: ,Kern,,1783,8/4/12 12:30,8/11/12 21:15,35.29557067,-116.1587605,,,,,,,,,,,90,99,79,43,19,28,13,1,26
Dillon Fire Incident Information: ,Siskiyou,,318,8/3/12 12:07,8/7/12 16:00,41.7921956,-123.377692,,,,,,,,,,,,,,,,,,1,0
Armario Fire Incident Information: ,Tuolumne,,30,8/7/12 18:30,8/9/12 08:15,37.9644698,-120.2694518,,0,,0,2,21,232,7,2,3,79,100,59,39,28,52,10,1,19
San Antonio Fire Incident Information: ,Sonoma,,35,8/8/12 14:24,8/8/12 15:30,38.1753133,-122.605724,,,,,,,,,,,66,88,46,54,64,93,34,1,24
Lake Complex Incident Information: ,Modoc,,1666,8/5/12 15:03,8/11/12 11:00,39.53390519,-117.9857161,,,,,,,,,,,81,93,70,43,29,46,13,1,34
Reading Fire Incident Information: ,Shasta,,28079,7/23/12 17:09,8/22/12 08:00,38.21516362,-118.7844508,,,,,,,,,,,,,,,,,,1,0
Fort Complex Incident Information: ,Siskiyou,,23653,8/5/12 19:00,9/11/12 10:30,41.7921956,-123.377692,,,,,,,,,,,,,,,,,,1,0
Wesley Fire Incident Information: ,Riverside,,14,8/9/12 12:54,8/9/12 15:45,33.604412,-117.2888042,,,,,,,,,,,81,100,63,57,47,75,23,1,26
Chihuahua Fire Incident Information: ,San Diego,,2007,8/9/12 13:13,8/12/12 18:30,33.3844485,-116.6900141,2,,,6,2,7,611,11,5,13,72,79,68,66,80,93,66,1,14
Lonoak  Fire Incident Information: ,San Benito,,90,8/11/12 10:48,8/11/12 19:15,36.7730307,-121.3090412,,,,,,,,,,,73,93,54,54,65,94,26,1,37
Lanes Fire Incident Information: ,Fresno,,138,8/11/12 12:30,8/13/12 19:15,36.07359401,-119.9494405,8,,,,,23,321,14,,1,88,108,70,61,46,73,18,1,19
Lambs Fire Incident Information: ,Riverside,,30,8/11/12 14:01,8/12/12 08:00,33.8838439,-116.9967943,,,,,,,,,,,82,99,68,61,50,76,28,1,24
Grade Fire Incident Information: ,Mendocino,,60,8/12/12 13:11,8/12/12 09:30,39.413462,-123.354951,,,,,,,,,,,81,106,55,46,43,77,9,1,21
Wye Fire (includes the Walker Fire) Incident Information: ,Lake,,7934,8/12/12 15:52,8/18/12 07:00,39.008859,-122.6138278,3,5,,,2,10,138,4,1,3,68,88,48,48,60,93,27,1,19
Vallecito Lightning Complex Incident Information: ,San Diego,,6,8/12/12 20:00,8/19/12 06:30,32.7157305,-117.1610966,4,,,,2,66,1070,30,2,18,75,84,72,68,79,94,49,1,13
Ramsey Fire Incident Information: ,Calaveras,,1137,8/11/12 14:45,9/5/12 20:00,38.2993716,-120.2790359,,,,,,,,,,,86,106,66,43,26,46,10,1,14
Buck Fire Incident Information: ,Riverside,,2681,8/14/12 12:56,8/17/12 07:00,33.542709,-117.8029777,6,4,,,5,102,1057,37,,16,81,97,64,59,48,78,27,1,32
Mill Fire Incident Information: ,Tehama,,1641,8/13/12 18:46,8/23/12 18:30,40.5574954,-122.7848264,3,,,,4,15,668,24,3,14,,95,61,,,,,1,0
Jawbone Complex Incident Information: ,Kern,,12018,8/10/12 13:01,8/23/12 09:30,35.07610464,-116.6564762,,,,,,,,,,,97,106,86,45,18,27,10,1,37
Indian Fire Incident Information: ,Mono,,12576,8/8/12 14:06,8/15/12 10:45,37.9396481,-119.1228723,,,,,,,,,,,70,88,52,37,33,61,15,1,32
Rush Fire Incident Information: ,Lassen,,315577,8/12/12 18:42,8/30/12 07:30,40.9515824,-120.4794363,,,,,,,,,,,72,99,45,28,26,45,7,1,27
Quail Fire Incident Information: ,San Bernardino,,297,8/12/12 14:17,8/18/12 08:00,33.9265764,-116.1872155,,,,,,,,,,,93,108,82,52,26,37,16,1,34
Salmon Fire Incident Information: ,El Dorado,,108,8/15/12 15:00,8/16/12 08:00,38.7734401,-121.0826581,,,,,,,,,,,88,97,79,52,31,42,22,1,19
Sand Fire Incident Information: ,El Dorado,,24,8/16/12 15:54,8/17/12 13:15,38.54645963,-120.5474495,,,,,,,,,,,75,95,57,48,46,77,15,1,16
SHU August Lightning Fires Incident Information: ,Shasta,,204,8/18/12 10:50,8/22/12 18:40,40.5865396,-122.3916754,1,,,,2,8,230,10,2,3,75,95,57,43,32,59,14,1,16
Ponderosa Fire Incident Information: ,Tehama,,27676,8/18/12 11:37,8/31/12 18:00,39.79005663,-122.831255,7,139,0,,8,60,1068,31,1,35,88,100,75,55,35,60,10,1,26
Vista Fire Incident Information: ,Riverside,,500,8/20/12 11:52,8/20/12 20:00,33.6319695,-117.0550728,,,,4,,28,220,,4,2,79,93,63,61,53,78,32,1,24
Barry Point Fire Incident Information: ,Modoc,,93071,8/6/12 16:17,8/28/12 09:20,41.9520566,-120.4236161,,,,,,,,,,,70,95,45,32,39,71,7,1,40
Antelope Fire Incident Information: ,Modoc,,650,8/21/12 13:47,8/28/12 09:30,36.31987681,-120.7498608,,,,,,,,,,,,,,,,,,1,0
Telegraph Fire Incident Information: ,Ventura,,75,8/26/12 08:25,8/27/12 16:00,34.25717003,-116.6721875,,,,,,,,,,,,91,61,,,,,1,0
Elk Fire Incident Information: ,Glenn,,125,8/29/12 16:40,8/29/12 19:25,39.611468,-122.5304009,,,,,,,,,,,75,93,59,36,27,45,9,1,13
Bitter Fire Incident Information: ,San Luis Obispo,,80,8/31/12 14:18,8/31/12 17:30,35.557239,-120.107443,,,,,,,,,,,68,82,54,50,62,93,30,1,34
Spanish Fire Incident Information: ,Humboldt,,133,8/31/12 23:16,9/3/12 18:15,40.66261013,-123.4986773,,,,,,,,,,,55,57,54,52,91,100,77,1,14
Power Fire Incident Information: ,Shasta,,240,9/1/12 13:45,9/4/12 20:00,40.8751606,-121.7123587,,10,,,1,5,25,1,1,5,72,88,54,45,51,83,18,1,19
Williams Fire Incident Information: ,Los Angeles,,315,9/2/12 17:52,9/4/12 10:45,34.1352507,-117.902128,,,,,,,,,,,68,93,43,43,45,80,17,1,24
Galley Fire Incident Information: ,Tulare,,86,9/3/12 04:30,9/3/12 18:15,35.24480812,-118.2098904,,,,,,,,,,,75,99,54,21,15,31,4,1,26
Slides Fire Incident Information: ,Tulare,,254,9/2/12 13:36,9/5/12 21:00,35.68458446,-118.8393722,,,,,,,,,,,75,90,63,48,42,60,24,1,21
16 Complex Incident Information: ,Colusa,,17944,9/4/12 15:45,9/11/12 06:30,39.12700687,-122.525804,6,,,,8,37,980,31,10,10,73,97,48,43,42,74,9,1,23
27 Fire Incident Information: ,Yolo,,127,9/4/12 15:00,9/5/12 07:30,34.1407174,-117.3256622,,,,,,,,,,,77,95,59,50,45,87,12,1,26
Creek Fire Incident Information: ,Shasta,,70,9/4/12 15:45,9/5/12 07:30,38.49929302,-120.5027684,,,,,,,,,,,75,95,55,36,29,48,11,1,14
Salt Fire Incident Information: ,Calaveras,,84,9/5/12 09:30,9/5/12 18:00,38.35497712,-119.2560147,,,,,1,5,50,2,1,1,61,81,43,36,39,63,20,1,23
Stafford Fire Incident Information: ,Trinity,,4407,9/5/12 14:40,9/13/12 19:15,39.81490933,-123.1149884,3,,,,3,22,513,11,1,17,,,,,,,,1,0
Likely Fire Incident Information: ,Lassen,,9838,9/5/12 11:25,9/15/12 06:15,34.38739007,-121.2452645,,,,,,,,,,,,,,,,,,1,0
Scotts Fire Incident Information: ,Lake,,4618,9/7/12 13:10,9/14/12 18:45,39.0612883,-123.0563914,5,,,,1,30,504,15,,8,66,91,43,41,47,83,11,1,24
Bagley Fire Incident Information: ,Shasta,,46011,9/5/12 14:40,9/15/12 20:00,41.0207132,-121.911107,,,,,,,,,,,64,88,43,32,34,62,12,1,11
North Pass Fire Incident Information: ,Mendocino,,41983,8/18/12 02:47,9/17/12 12:00,39.82518,-123.092972,,,,,,,,,,,,,,,,,,1,0
Ward Fire Incident Information: ,Shasta,,550,9/11/12 00:50,9/11/12 10:30,34.0589609,-118.3495994,,,,,,,,,,,,86,59,,,,,1,0
Michal Fire Incident Information: ,Calaveras,,23,9/11/12 12:16,9/12/12 14:00,38.2037694,-120.5596563,,1,,,,1,3,,,,72,90,55,43,40,67,17,1,18
Iron Fire  Incident Information: ,Shasta,,58,9/12/12 11:22,9/12/12 18:15,40.6415397,-122.4569406,,,,,,,,,,,70,95,45,36,39,71,11,1,11
Cheney Fire Incident Information: ,Lassen,,230,9/13/12 13:15,9/15/12 18:15,40.390398,-120.7166295,2,,,,1,13,128,4,,2,,79,41,,,,,1,0
Truck Fire Incident Information: ,Riverside,,35,9/14/12 19:00,9/15/12 16:15,33.94470139,-117.2806024,,,,,,,,,,,81,108,54,48,47,96,8,1,19
Rock Fire Incident Information: ,El Dorado,,45,9/15/12 17:26,9/17/12 19:00,38.773362,-120.8137792,,,,,,,,,,,81,91,68,43,28,38,17,1,16
Coal Fire Incident Information: ,Shasta,,241,9/21/12 15:27,9/23/12 14:30,36.79856873,-119.0277388,,,,,,,,,,,79,93,64,48,37,56,17,1,16
Shockey Fire Incident Information: ,San Diego,,2556,9/23/12 12:16,9/27/12 06:45,32.6321485,-116.4335743,4,38,,,2,45,749,24,,1,75,97,55,37,31,52,10,1,37
Concow Fire Incident Information: ,Butte,,60,9/26/12 15:10,9/27/12 20:00,36.32277825,-119.3995164,,,,,3,20,120,8,,4,81,95,64,46,35,52,17,1,13
Range Fire Incident Information: ,Riverside,,364,9/29/12 18:10,10/1/12 18:30,33.49774461,-117.7366626,,,,,,,,,,,72,91,52,48,51,83,21,1,0
Christmas Fire Incident Information: ,Riverside,,27,9/29/12 16:46,9/29/12 22:00,33.52983575,-116.7522286,,,,,,,,,,,,81,54,,,,,1,0
Flynn Fire Incident Information: ,Mendocino,,195,10/1/12 14:20,10/4/12 18:15,39.40502955,-123.5852628,1,10,,,5,39,563,20,1,9,77,102,50,37,39,71,7,1,23
Sand Fire Incident Information: ,El Dorado,,15,10/2/12 23:35,10/3/12 08:15,38.646734,-120.6914924,,,,,,,,,,,81,93,70,39,24,33,15,1,19
Arrow Complex Incident Information: ,Del Norte,,90,10/4/12 02:22,10/6/12 08:00,41.69759048,-123.8157843,,,,4,2,35,707,27,2,6,54,59,50,54,96,100,62,1,10
Lookout Fire Incident Information: ,Santa Barbara,,,10/17/12 07:49,10/17/12 16:45,34.4162768,-119.6920172,,,,,,,,,,,72,84,57,54,51,72,29,1,16
29 Fire Incident Information: ,Lake,,300,10/18/12 14:44,10/20/12 19:00,38.91147,-122.612434,,24,,,3,34,363,16,2,4,66,91,43,46,53,87,19,1,27
Devore Fire Incident Information: ,San Bernardino,,,11/5/12 10:55,11/6/12 08:15,37.29011189,-118.7965255,,,,,,,,,,,55,79,34,19,31,51,11,1,19
Creek Fire Incident Information: ,San Luis Obispo,,100,11/13/12 02:15,11/15/12 08:15,35.2723111,-120.8867814,,,0,,,9,145,6,,1,,57,50,,,,,1,0
Becks Fire Incident Information: ,Lake,,296,1/22/13 11:08,1/23/13 10:15,38.9752612,-122.8412941,,,,,,,,,,,45,61,28,34,71,100,42,1,14
River Fire Incident Information: ,Inyo,,406,2/24/13 08:16,2/28/13 20:00,36.60223836,-118.6320899,2,0,0,,1,1,78,5,,2,,,,,,,,1,0
Jurupa Fire Incident Information: ,Riverside,,311,2/28/13 16:43,3/2/13 19:00,33.74406717,-116.8880773,,,,,,,,,,,,57,37,,,,,1,0
Butte Fire Incident Information: ,Fresno,,80,4/9/13 12:35,4/9/13 15:30,36.83231928,-120.2059544,,,,,,,,,,,59,75,43,34,45,71,19,1,29
Fawnskin Fire Incident Information: ,San Bernardino,,30,4/20/13 17:30,4/22/13 09:00,35.1322905,-119.4006493,,,,,,,,,,,70,84,54,36,29,42,16,1,19
Gold Fire Incident Information: ,Madera,,274,4/30/13 12:59,5/1/13 07:00,37.34418964,-120.8395256,,,,,,,,,,,73,86,63,37,38,60,16,1,39
Silverado Fire Incident Information: ,Napa,,75,4/30/13 23:44,5/1/13 17:15,38.4389084,-122.3503081,,,,,,,,,,,64,81,48,45,60,86,33,1,26
Yellow Fire Incident Information: ,Sonoma,,125,5/1/13 02:01,5/3/13 06:15,38.50926687,-122.5866573,,,,,1,5,117,6,1,3,72,90,52,28,40,71,9,1,53
Panther Fire Incident Information: ,Tehama,,6965,5/1/13 09:12,5/9/13 09:00,39.89493062,-121.9741282,6,,,,11,50,821,29,1,9,68,88,48,19,20,82,6,1,40
Cedar Fire Incident Information: ,Butte,,72,5/1/13 04:16,5/4/13 19:00,35.86740847,-117.6064586,,,,,2,3,44,,,,75,84,68,,,,,1,66
Summit Fire Incident Information: ,Riverside,,3166,5/1/13 12:38,5/4/13 18:30,33.68085759,-116.2521173,2,1,,,2,24,377,17,3,7,81,97,64,18,27,51,3,1,29
306 Fire Incident Information: ,Glenn,,217,5/1/13 19:00,5/5/13 18:00,39.57319524,-122.3656235,,,,,1,2,33,2,1,2,68,88,48,19,20,82,6,1,40
Springs Fire Incident Information: ,Ventura,,24251,5/2/13 07:01,5/11/13 06:30,34.2051216,-118.9863625,10,22,,,8,5,121,6,11,11,,73,52,,,,,1,0
Tres Pinos Fire Incident Information: ,San Benito,,354,5/3/13 11:42,5/3/13 18:45,36.297024,-120.667306,,,,,,,,,,,,,,,,,,1,0
Gorgonio Fire Incident Information: ,Riverside,,510,5/4/13 11:43,5/5/13 18:45,33.7467172,-116.7148995,,,,,,,,,,,,72,46,,,,,1,0
Ranger Fire Incident Information: ,Madera,,15,5/12/13 13:02,5/13/13 09:00,37.06564111,-120.7147278,,,,,,,,,,,81,99,61,52,47,78,16,1,29
Lytle Fire Incident Information: ,San Bernardino,,75,5/13/13 13:30,5/15/13 08:15,34.1858448,-117.4391141,1,1,,,,21,42,13,,4,75,99,54,48,41,86,18,1,26
Grand Fire Incident Information: ,Kern,,4346,5/15/13 12:50,5/21/13 19:45,34.38128542,-119.2728218,4,,,,1,34,847,29,1,12,64,73,55,52,62,75,49,1,23
54 Fire Incident Information: ,Riverside,,40,5/16/13 13:48,5/17/13 08:30,33.60056271,-116.978311,,,,2,1,19,65,,,,,75,50,,,,,1,0
Lake Fire Incident Information: ,Los Angeles,,712,5/17/13 13:23,5/18/13 19:00,34.4952568,-118.6227295,,,,,,,,,,,,73,54,,,,,1,0
Lilly 2 Fire Incident Information: ,Madera,,91,5/19/13 15:07,5/20/13 19:10,37.2090073,-119.7869769,,1,,2,2,24,,6,2,2,73,88,61,43,42,64,19,1,23
Cottontail Fire Incident Information: ,San Luis Obispo,,35,5/20/13 15:45,5/20/13 19:10,35.4862279,-120.9124404,,,,,,,,,,,,55,46,,,,,1,0
Cherry Fire Incident Information: ,Riverside,,25,5/20/13 13:47,5/20/13 18:50,33.97804495,-116.0942501,,,,,,,,,,,75,88,64,19,13,22,6,1,27
Water Fire Incident Information: ,Riverside,,90,5/21/13 14:16,5/21/13 19:30,33.987776,-116.655673,,,,,,,,,,,,77,50,,,,,1,0
Neal Fire Incident Information: ,Butte,,150,5/22/13 00:56,5/22/13 09:30,39.704162,-121.6821766,,,,,2,17,60,,,4,57,72,46,23,30,40,8,1,39
Border Fire Incident Information: ,San Diego,,100,5/22/13 16:14,5/23/13 08:30,32.582041,-116.9187486,,,,,,,,,,,61,79,41,39,44,80,8,1,34
San Felipe Fire Incident Information: ,San Diego,,2781,5/23/13 12:20,5/26/13 17:45,38.14333015,-116.3153369,5,,,1,3,10,341,14,1,19,52,70,34,3,14,28,7,1,35
Smiley Fire Incident Information: ,Riverside,,124,5/25/13 14:59,5/25/13 23:00,33.51450253,-116.4692145,,,,,,,,,,,,68,52,,,,,1,0
Homestead Fire Incident Information: ,San Luis Obispo,,50,5/25/13 17:35,5/25/13 18:45,35.5106422,-120.6381351,,,,,,,,,,,,55,48,,,,,1,0
General Fire Incident Information: ,San Diego,,1271,5/26/13 12:04,5/31/13 06:15,33.0931699,-116.4854377,6,,0,7,5,5,245,8,8,7,54,73,34,39,59,92,25,1,34
White Fire Incident Information: ,Santa Barbara,,1984,5/27/13 14:45,5/30/13 19:30,34.5754323,-119.9587994,,,,,,,,,,,66,82,52,45,61,94,17,1,47
Magic Fire Incident Information: ,Los Angeles,,149,5/28/13 11:30,5/29/13 15:30,34.4253305,-118.5972191,,,,,,,,,,,,77,54,,,,,1,0
Olive Fire Incident Information: ,Santa Barbara,,170,5/28/13 15:24,5/29/13 10:30,34.23721226,-119.9057967,,,,,,,,,,,66,81,52,50,67,94,32,1,40
Shelton Fire Incident Information: ,San Joaquin,,303,5/30/13 11:20,5/30/13 13:25,37.6387078,-121.4017783,,,,,,,,,,,61,68,52,48,68,83,52,1,32
Branch Fire Incident Information: ,San Luis Obispo,,500,6/1/13 17:27,6/3/13 18:30,35.1898639,-119.8632972,,,,,,,,,,,64,81,48,48,65,93,37,1,23
Murphy Fire Incident Information: ,Tuolumne,,100,6/2/13 13:30,6/2/13 16:55,38.13816893,-120.4577407,,,,,,,,,,,75,95,55,45,39,72,14,1,14
Lone Fire Incident Information: ,Butte,,298,6/3/13 13:49,6/3/13 20:00,39.4341952,-121.5768094,,9,,4,3,26,,3,2,4,79,97,59,52,46,68,17,1,21
152 Fire Incident Information: ,Merced,,124,6/4/13 15:42,6/5/13 08:30,37.056069,-121.1137544,,,,,,,,,,,61,72,52,52,75,94,53,1,34
Lake Fire Incident Information: ,Lake,,30,6/5/13 16:05,6/6/13 07:00,38.9921545,-122.7034047,,,,,,,,,,,63,73,52,50,73,96,49,1,24
Vasco Fire Incident Information: ,Alameda,,240,6/8/13 10:16,6/8/13 13:25,37.7462809,-121.7254414,,,,,,,,,,,79,97,57,54,52,80,24,1,32
Viper Fire Incident Information: ,Riverside,,42,6/8/13 15:37,6/8/13 19:00,33.66887821,-116.7415591,,,,,,,,,,,,77,52,,,,,1,0
Powerhouse Fire Incident Information: ,Los Angeles,,30274,5/30/13 15:28,6/8/13 18:30,34.3166568,-118.0057774,,,,,,,,,,,,77,54,,,,,1,0
Hathaway Fire Incident Information: ,Riverside,,,6/9/13 12:30,6/9/13 16:45,33.42122447,-116.8672254,,,,,,,,,,,,77,52,,,,,1,0
Sonoma-Lake-Napa Unit Lightning Fires Incident Information: ,Sonoma,,28,6/10/13 00:46,6/14/13 15:45,38.29227574,-122.6941719,,,,,,,,,,,63,70,54,52,71,86,55,1,35
Roadrunner Fire Incident Information: ,Amador,,96,6/12/13 16:43,6/13/13 09:45,38.2788617,-120.9687301,,,,,,,,,,,72,88,57,46,45,72,18,1,23
Revis Fire Incident Information: ,Madera,,75,6/12/13 16:40,6/14/13 16:30,37.1612486,-119.7482181,,,,,2,7,41,6,,3,82,97,66,48,39,63,14,1,34
Daves Fire Incident Information: ,Glenn,,226,6/12/13 15:17,6/17/13 09:00,39.5236649,-122.5307214,,,,,,,,,,,,,,,,,,1,0
PFE Fire Incident Information: ,Placer,,237,6/13/13 11:28,6/13/13 14:15,38.7288871,-121.3924854,,,,,,,,,,,66,81,54,39,37,67,14,1,14
Clinton Fire Incident Information: ,Fresno,,108,6/13/13 11:54,6/13/13 21:30,36.772013,-119.6278959,,,,,,,,,,,75,90,61,39,30,46,14,1,34
Michelle Fire Incident Information: ,Fresno,,35,6/13/13 15:54,6/13/13 21:30,36.34688808,-120.2546486,,,,,,,,,,,73,88,61,37,28,39,16,1,32
Palmyrita Fire Incident Information: ,Riverside,,40,6/14/13 13:47,6/15/13 08:00,33.48027078,-117.3945764,,,,,,,,,,,64,82,48,55,81,100,44,1,0
Carstens Fire Incident Information: ,Mariposa,,1708,6/16/13 14:12,6/26/13 11:15,37.80563127,-119.7360785,1,,,,,,112,2,,4,54,75,34,19,28,48,8,1,19
Rolling Fire Incident Information: ,Madera,,482,6/16/13 18:17,6/18/13 19:30,36.8545253,-119.7903738,,1,,,,,,,,,79,95,63,45,37,56,18,1,32
Sierra Fire Incident Information: ,Fresno,,46,6/17/13 14:41,6/19/13 08:45,37.036791,-119.4549618,,,,,,,,,,,81,93,64,46,33,52,14,1,35
California Fire Incident Information: ,Solano,,124,6/18/13 15:18,6/18/13 22:30,38.1149067,-122.188371,,,,,,,,,,,64,75,52,48,66,93,38,1,52
Mount Fire Incident Information: ,Lake,,25,6/20/13 14:29,6/20/13 13:15,39.10272779,-122.7728907,,,,,,,,,,,63,81,46,41,49,80,17,1,29
George Fire Incident Information: ,Fresno,,150,6/25/13 13:36,6/25/13 17:15,36.05959702,-119.6806874,,,,,,,,,,,75,91,63,52,42,59,28,1,21
Mills Fire Incident Information: ,San Bernardino,,534,6/28/13 14:30,7/1/13 06:00,36.097204,-118.0888444,,1,,,2,1,20,12,1,2,90,102,79,,,,,1,27
Freeman Fire Incident Information: ,Monterey,,105,6/29/13 14:09,6/29/13 18:30,36.1468251,-121.0062101,,,,,,,,,,,,57,50,,,,,1,0
Kirker Fire Incident Information: ,Contra Costa,,492,7/1/13 13:19,7/1/13 18:40,37.80118424,-121.831913,,,,,,,,,,,73,91,55,57,65,93,37,1,26
Concord Fire Incident Information: ,Contra Costa,,274,7/1/13 15:41,7/1/13 18:30,38.00030074,-121.8438372,,,,,,,,,,,73,91,55,57,65,93,37,1,26
Northern Region July Lightning Incident Information: ,Orange,,754,7/2/13 12:00,7/4/13 10:45,33.5415413,-117.7798538,,,,,,,,,,,75,88,63,63,66,93,44,1,0
Fox Fire (formally 3-7 Fire) Incident Information: ,Modoc,,502,7/3/13 22:56,7/5/13 18:30,41.1941359,-120.9442135,,,,,,,,,,,81,99,63,52,45,73,17,1,45
Vina Fire Incident Information: ,Tehama,,200,7/4/13 07:30,7/4/13 10:30,40.012077,-122.079839,,,,,,,,,,,99,111,86,48,24,37,9,1,37
Grant Fire Incident Information: ,Alameda,,50,7/4/13 10:00,7/4/13 11:30,37.73425701,-122.1472595,,,,,,,,,,,73,84,61,57,65,87,43,1,29
Fallon Fire Incident Information: ,Alameda,,38,7/6/13 13:09,7/6/13 14:30,37.66124509,-121.6104931,,,,,,,,,,,70,81,55,50,58,86,30,1,34
Chariot Fire Incident Information: ,San Diego,,7055,7/6/13 12:55,7/15/13 06:15,33.12969976,-120.8299467,12,158,,,24,4,146,1,2,2,,,,,,,,1,0
Adelaida Fire Incident Information: ,San Luis Obispo,,85,7/7/13 13:16,7/7/13 22:00,35.645236,-120.802497,,,,,,,,,,,,57,50,,,,,1,0
McGanney Fire Incident Information: ,Yuba,,73,7/8/13 09:59,7/8/13 17:30,39.204101,-121.2984054,,,,,,,,,,,79,91,66,46,34,53,17,1,16
Kyburz Fire Incident Information: ,El Dorado,,572,7/8/13 12:45,7/11/13 18:30,38.7766689,-120.270605,,,,,,,,,,,64,84,46,30,38,65,10,1,32
Fiddler Fire Incident Information: ,Shasta,,43,7/9/13 11:59,7/9/13 15:00,37.92860816,-120.7157775,,,,,,,,,,,84,106,64,50,41,64,12,1,19
Uvas Fire Incident Information: ,Santa Clara,,50,7/12/13 13:09,7/12/13 17:45,37.1477776,-121.7746411,,,,,,,,,,,66,82,50,52,72,100,32,1,37
Diablo Fire Incident Information: ,Stanislaus,,150,7/12/13 15:35,7/13/13 21:45,37.4259192,-121.2251541,,,,,,,,,,,66,82,50,52,72,100,32,1,37
Redlands Fire Incident Information: ,Riverside,,150,7/16/13 17:48,7/17/13 07:45,33.9926618,-117.1537698,,,,,,,,,,,70,90,52,52,52,86,23,1,0
Tassajara Fire Incident Information: ,Monterey,,213,7/17/13 13:23,7/17/13 19:30,36.2335775,-121.5503526,,,,,,,,,,,61,64,55,54,80,93,67,1,24
Rancho Fire Incident Information: ,Kern,,712,7/19/13 12:00,7/22/13 18:45,35.46041798,-118.647434,5,0,,,3,2,60,2,1,4,86,99,73,43,26,38,14,1,21
